,Address,Monthly Rent,Property Type,Bath,Bed,Voucher Necessary,Availability,Contact,URL,Lat,Long,Coordinates,GEOID,State,County,City,Name,RegionID,year,eviction-rate,eviction-filing-rate,2011-2015,2015-2019
0,"1718 W 66th St 1, Chicago, IL 60636",800,Apt,1.0,2.0,Yes,Check Availability,,http://chicagoha.gosection8.com/Section-8-housing-in-Chicago-IL/2-bedroom-1-bathroom-rental-Apt/1288108,41.774,-87.6673,POINT (-87.6673 41.774),170316712002,IL,Cook,Chicago,West Englewood,269612,2016,1.54,4.62,0.0024813895781637717,0.11303630363036303
1,"6130 S Eberhart Ave 1, Chicago, IL 60637",1200,Apt,2.0,3.0,Yes,Available Now,(773) 961-4367,http://chicagoha.gosection8.com/Section-8-housing-in-Chicago-IL/3-bedroom-2-bathroom-rental-Apt/4012748,41.783,-87.6136,POINT (-87.61360000000001 41.783),170314206001,IL,Cook,Chicago,West Woodlawn,403353,2016,2.81,8.15,-0.04661654135338346,0.026813880126182965
2,"4827 S Seeley Ave , Chicago, IL 60609",600,Apt,1.0,1.0,Yes,Check Availability,,http://chicagoha.gosection8.com/Section-8-housing-in-Chicago-IL/1-bedroom-1-bathroom-rental-Apt/4017021,41.8058,-87.6756,POINT (-87.6756 41.8058),170316115001,IL,Cook,Chicago,Back of the Yards,403146,2016,0.42,2.09,0.0,0.08339828526890102
3,"828 E 88th Pl 2, Chicago, IL 60619",875,Apt,1.0,3.0,Yes,Check Availability,,http://chicagoha.gosection8.com/Section-8-housing-in-Chicago-IL/3-bedroom-1-bathroom-rental-Apt/4036551,41.73419,-87.603472,POINT (-87.603472 41.73419),170314408001,IL,Cook,Chicago,Burnside,137634,2016,2.26,7.89,0.01499605367008682,0.09720062208398134
4,"4620 S Evans Ave 1, Chicago, IL 60653",1150,Apt,1.0,3.0,Yes,Check Availability,,http://chicagoha.gosection8.com/Section-8-housing-in-Chicago-IL/3-bedroom-1-bathroom-rental-Apt/4036578,41.810646,-87.608165,POINT (-87.608165 41.810646),170318436002,IL,Cook,Chicago,Bronzeville,403145,2016,2.73,5.45,0.0026827632461435278,0.030100334448160536
5,"8200 S Escanaba Ave 1r, Chicago, IL 60617",1000,Duplex,2.0,4.0,Yes,Available Now,(773) 961-4367,http://chicagoha.gosection8.com/Section-8-housing-in-Chicago-IL/4-bedroom-2-bathroom-rental-Duplex/4062682,41.7463,-87.5543,POINT (-87.5543 41.7463),170314603024,IL,Cook,Chicago,South Chicago,140437,2016,2.99,5.97,0.02642113690952762,0.06708268330733229
6,"211 N Laporte Ave 2, Chicago, IL 60644",950,Duplex,1.0,2.0,Yes,Available Now,(773) 961-4367,http://chicagoha.gosection8.com/Section-8-housing-in-Chicago-IL/2-bedroom-1-bathroom-rental-Duplex/4062710,41.8849,-87.7488,POINT (-87.7488 41.8849),170312518005,IL,Cook,Chicago,South Austin,403120,2016,0.99,4.28,-0.003479471120389701,0.05377094972067039
7,"525 N Homan Ave , Chicago, IL 60624",1150,Apt,1.0,3.0,Yes,Available Now,(773) 961-4367,http://chicagoha.gosection8.com/Section-8-housing-in-Chicago-IL/3-bedroom-1-bathroom-rental-Apt/4062715,41.8911,-87.7109,POINT (-87.7109 41.8911),170318367001,IL,Cook,Chicago,East Garfield Park,269577,2016,3.61,6.94,-0.012162162162162163,0.03419972640218878
8,"1352 W 64th St 2, Chicago, IL 60636",1150,Apt,1.0,3.0,Yes,Available Now,(773) 961-4367,http://chicagoha.gosection8.com/Section-8-housing-in-Chicago-IL/3-bedroom-1-bathroom-rental-Apt/4062722,41.77799,-87.658923,POINT (-87.658923 41.77799),170318349002,IL,Cook,Chicago,Englewood,138261,2016,2.46,8.48,-0.018268467037331215,0.0744336569579288
9,"1352 W 64th St 2, Chicago, IL 60636",1150,Apt,1.0,3.0,Yes,Available Now,(773) 961-4367,http://chicagoha.gosection8.com/Section-8-housing-in-Chicago-IL/3-bedroom-1-bathroom-rental-Apt/4062766,41.77799,-87.658923,POINT (-87.658923 41.77799),170318349002,IL,Cook,Chicago,Englewood,138261,2016,2.46,8.48,-0.018268467037331215,0.0744336569579288
10,"4948 S Laflin St G, Chicago, IL 60609",950,Apt,1.0,2.0,Yes,Available Now,(773) 961-4367,http://chicagoha.gosection8.com/Section-8-housing-in-Chicago-IL/2-bedroom-1-bathroom-rental-Apt/4062781,41.8036,-87.6627,POINT (-87.6627 41.8036),170316112002,IL,Cook,Chicago,Back of the Yards,403146,2016,1.47,2.7,0.0,0.08339828526890102
11,"4948 S Laflin St 1, Chicago, IL 60609",950,Apt,1.0,3.0,Yes,Available Now,(773) 961-4367,http://chicagoha.gosection8.com/Section-8-housing-in-Chicago-IL/3-bedroom-1-bathroom-rental-Apt/4062788,41.8036,-87.6627,POINT (-87.6627 41.8036),170316112002,IL,Cook,Chicago,Back of the Yards,403146,2016,1.47,2.7,0.0,0.08339828526890102
12,"4948 S Laflin St 2, Chicago, IL 60609",950,Apt,1.0,3.0,Yes,Available Now,(773) 961-4367,http://chicagoha.gosection8.com/Section-8-housing-in-Chicago-IL/3-bedroom-1-bathroom-rental-Apt/4062793,41.8036,-87.6627,POINT (-87.6627 41.8036),170316112002,IL,Cook,Chicago,Back of the Yards,403146,2016,1.47,2.7,0.0,0.08339828526890102
13,"1352 W 64th St 1, Chicago, IL 60636",1150,Apt,2.0,3.0,Yes,Available Now,(773) 961-4367,http://chicagoha.gosection8.com/Section-8-housing-in-Chicago-IL/3-bedroom-2-bathroom-rental-Apt/4062795,41.77799,-87.658923,POINT (-87.658923 41.77799),170318349002,IL,Cook,Chicago,Englewood,138261,2016,2.46,8.48,-0.018268467037331215,0.0744336569579288
14,"6024 S St Lawrnc Ave 2, Chicago, IL 60637",1350,Apt,1.0,4.0,Yes,Available Now,(773) 961-4367,http://chicagoha.gosection8.com/Section-8-housing-in-Chicago-IL/4-bedroom-1-bathroom-rental-Apt/4062806,41.785,-87.6112,POINT (-87.6112 41.785),170314206001,IL,Cook,Chicago,West Woodlawn,403353,2016,2.81,8.15,-0.04661654135338346,0.026813880126182965
15,"6024 S St Lawrnc Ave 3, Chicago, IL 60637",1350,Apt,1.0,4.0,Yes,Available Now,(773) 961-4367,http://chicagoha.gosection8.com/Section-8-housing-in-Chicago-IL/4-bedroom-1-bathroom-rental-Apt/4062807,41.785,-87.6112,POINT (-87.6112 41.785),170314206001,IL,Cook,Chicago,West Woodlawn,403353,2016,2.81,8.15,-0.04661654135338346,0.026813880126182965
16,"6621 S Marshfield Ave 1, Chicago, IL 60636",1350,Apt,1.0,4.0,Yes,Available Now,(773) 961-4367,http://chicagoha.gosection8.com/Section-8-housing-in-Chicago-IL/4-bedroom-1-bathroom-rental-Apt/4062810,41.7733,-87.665,POINT (-87.66500000000001 41.7733),170316715001,IL,Cook,Chicago,West Englewood,269612,2016,4.1,10.66,0.0024813895781637717,0.11303630363036303
17,"6621 S Marshfield Ave 2, Chicago, IL 60636",1350,Apt,1.0,4.0,Yes,Available Now,(773) 961-4367,http://chicagoha.gosection8.com/Section-8-housing-in-Chicago-IL/4-bedroom-1-bathroom-rental-Apt/4062811,41.7733,-87.665,POINT (-87.66500000000001 41.7733),170316715001,IL,Cook,Chicago,West Englewood,269612,2016,4.1,10.66,0.0024813895781637717,0.11303630363036303
18,"6718 S Clyde Ave 3s, Chicago, IL 60649",1150,Apt,1.0,3.0,Yes,Available Now,(773) 961-4367,http://chicagoha.gosection8.com/Section-8-housing-in-Chicago-IL/3-bedroom-1-bathroom-rental-Apt/4062815,41.7728663,-87.5742095,POINT (-87.57420949999999 41.7728663),170314301014,IL,Cook,Chicago,South Shore,269608,2016,4.05,10.93,-0.028191072826938137,0.038678485092667206
19,"6805 S Langley Ave 1, Chicago, IL 60637",1150,Apt,1.0,3.0,Yes,Available Now,(773) 961-4367,http://chicagoha.gosection8.com/Section-8-housing-in-Chicago-IL/3-bedroom-1-bathroom-rental-Apt/4062817,41.771,-87.6078,POINT (-87.6078 41.771),170314212002,IL,Cook,Chicago,Park Manor,403356,2016,0.76,2.65,-0.023148148148148147,0.06398104265402843
20,"6805 S Langley Ave 2, Chicago, IL 60637",1150,Apt,1.0,3.0,Yes,Available Now,(773) 961-4367,http://chicagoha.gosection8.com/Section-8-housing-in-Chicago-IL/3-bedroom-1-bathroom-rental-Apt/4062818,41.771,-87.6078,POINT (-87.6078 41.771),170314212002,IL,Cook,Chicago,Park Manor,403356,2016,0.76,2.65,-0.023148148148148147,0.06398104265402843
21,"6805 S Langley Ave 3, Chicago, IL 60637",900,Apt,1.0,2.0,Yes,Available Now,(773) 961-4367,http://chicagoha.gosection8.com/Section-8-housing-in-Chicago-IL/2-bedroom-1-bathroom-rental-Apt/4062819,41.771,-87.6078,POINT (-87.6078 41.771),170314212002,IL,Cook,Chicago,Park Manor,403356,2016,0.76,2.65,-0.023148148148148147,0.06398104265402843
22,"7136 S East End Ave 3n, Chicago, IL 60649",1150,Apt,1.0,3.0,Yes,Available Now,(773) 961-4367,http://chicagoha.gosection8.com/Section-8-housing-in-Chicago-IL/3-bedroom-1-bathroom-rental-Apt/4062822,41.7649399,-87.5839979,POINT (-87.5839979 41.7649399),170314305003,IL,Cook,Chicago,South Shore,269608,2016,4.6,9.2,-0.028191072826938137,0.038678485092667206
23,"7136 S East End Ave 3s, Chicago, IL 60649",900,Apt,1.0,3.0,Yes,Available Now,(773) 961-4367,http://chicagoha.gosection8.com/Section-8-housing-in-Chicago-IL/3-bedroom-1-bathroom-rental-Apt/4062827,41.7649399,-87.5839979,POINT (-87.5839979 41.7649399),170314305003,IL,Cook,Chicago,South Shore,269608,2016,4.6,9.2,-0.028191072826938137,0.038678485092667206
24,"8200 S Escanaba Ave 2r, Chicago, IL 60617",950,Apt,1.0,2.0,Yes,Available Now,(773) 961-4367,http://chicagoha.gosection8.com/Section-8-housing-in-Chicago-IL/2-bedroom-1-bathroom-rental-Apt/4062830,41.7463,-87.5543,POINT (-87.5543 41.7463),170314603024,IL,Cook,Chicago,South Chicago,140437,2016,2.99,5.97,0.02642113690952762,0.06708268330733229
25,"8200 S Escanaba Ave A, Chicago, IL 60617",1300,Apt,2.0,4.0,Yes,Available Now,(773) 961-4367,http://chicagoha.gosection8.com/Section-8-housing-in-Chicago-IL/4-bedroom-2-bathroom-rental-Apt/4062832,41.7463,-87.5543,POINT (-87.5543 41.7463),170314603024,IL,Cook,Chicago,South Chicago,140437,2016,2.99,5.97,0.02642113690952762,0.06708268330733229
26,"8921 S Exchange Ave 1, Chicago, IL 60617",1150,Apt,1.0,3.0,Yes,Available Now,(773) 961-4367,http://chicagoha.gosection8.com/Section-8-housing-in-Chicago-IL/3-bedroom-1-bathroom-rental-Apt/4062834,41.733001,-87.5522979,POINT (-87.5522979 41.733001),170318339001,IL,Cook,Chicago,South Chicago,140437,2016,1.75,5.25,0.02642113690952762,0.06708268330733229
27,"8921 S Exchange Ave 2, Chicago, IL 60617",1150,Apt,1.0,3.0,Yes,Available Now,(773) 961-4367,http://chicagoha.gosection8.com/Section-8-housing-in-Chicago-IL/3-bedroom-1-bathroom-rental-Apt/4062835,41.733001,-87.5522979,POINT (-87.5522979 41.733001),170318339001,IL,Cook,Chicago,South Chicago,140437,2016,1.75,5.25,0.02642113690952762,0.06708268330733229
28,"7810 S Burnham Ave , Chicago, IL 60649",1350,House,2.0,5.0,Yes,Available Now,(773) 961-4367,http://chicagoha.gosection8.com/Section-8-housing-in-Chicago-IL/5-bedroom-2-bathroom-rental-House/4062836,41.7533,-87.5574,POINT (-87.5574 41.7533),170314313011,IL,Cook,Chicago,South Shore,269608,2016,3.09,6.19,-0.028191072826938137,0.038678485092667206
29,"5722 S La Salle St 1, Chicago, IL 60621",1150,Apt,1.0,3.0,Yes,Available Now,(773) 961-4367,http://chicagoha.gosection8.com/Section-8-housing-in-Chicago-IL/3-bedroom-1-bathroom-rental-Apt/4062839,41.7903,-87.6296,POINT (-87.6296 41.7903),170318346004,IL,Cook,Chicago,Englewood,138261,2016,2.35,5.1,-0.018268467037331215,0.0744336569579288
30,"6832 S Dorchester Ave 2, Chicago, IL 60637",1150,Apt,1.0,3.0,Yes,Available Now,(773) 961-4367,http://chicagoha.gosection8.com/Section-8-housing-in-Chicago-IL/3-bedroom-1-bathroom-rental-Apt/4062841,41.7705,-87.5914,POINT (-87.59139999999999 41.7705),170314303003,IL,Cook,Chicago,Grand Crossing,276349,2016,1.14,4.55,-0.02107728337236534,0.058213716108452954
31,"7746 S Greenwood Ave 2, Chicago, IL 60619",950,Apt,1.0,2.0,Yes,Available Now,(773) 961-4367,http://chicagoha.gosection8.com/Section-8-housing-in-Chicago-IL/2-bedroom-1-bathroom-rental-Apt/4062844,41.7536,-87.5983,POINT (-87.59829999999999 41.7536),170316915002,IL,Cook,Chicago,Grand Crossing,276349,2016,1.76,8.82,-0.02107728337236534,0.058213716108452954
32,"6141 S Eberhart Ave 1, Chicago, IL 60637",1350,Apt,2.0,6.0,Yes,Available Now,(773) 961-4367,http://chicagoha.gosection8.com/Section-8-housing-in-Chicago-IL/6-bedroom-2-bathroom-rental-Apt/4062846,41.7827,-87.6129,POINT (-87.6129 41.7827),170314206002,IL,Cook,Chicago,West Woodlawn,403353,2016,1.42,6.86,-0.04661654135338346,0.026813880126182965
33,"2023 N Drake Ave 3s, Chicago, IL 60647",950,Apt,1.0,2.0,Yes,Available Now,(773) 961-4367,http://chicagoha.gosection8.com/Section-8-housing-in-Chicago-IL/2-bedroom-1-bathroom-rental-Apt/4062847,41.918,-87.715,POINT (-87.715 41.918),170312210002,IL,Cook,Chicago,Logan Square,269592,2016,0.54,2.16,0.07522697795071336,0.038600723763570564
34,"1306 E 69th St , Chicago, IL 60637",1350,House,2.0,5.0,Yes,Available Now,(773) 961-4367,http://chicagoha.gosection8.com/Section-8-housing-in-Chicago-IL/5-bedroom-2-bathroom-rental-House/4062848,41.7702,-87.5936,POINT (-87.5936 41.7702),170318418002,IL,Cook,Chicago,Grand Crossing,276349,2016,2.34,6.23,-0.02107728337236534,0.058213716108452954
35,"6832 S Prairie Ave , Chicago, IL 60637",1150,House,1.0,3.0,Yes,Available Now,(773) 961-4367,http://chicagoha.gosection8.com/Section-8-housing-in-Chicago-IL/3-bedroom-1-bathroom-rental-House/4062862,41.7701,-87.619,POINT (-87.619 41.7701),170316904001,IL,Cook,Chicago,Park Manor,403356,2016,0.45,4.55,-0.023148148148148147,0.06398104265402843
36,"3638 W Thomas St 2, Chicago, IL 60651",900,Apt,1.0,2.0,Yes,Available Now,(773) 961-4367,http://chicagoha.gosection8.com/Section-8-housing-in-Chicago-IL/2-bedroom-1-bathroom-rental-Apt/4063978,41.90104,-87.717954,POINT (-87.71795400000001 41.90104),170312312001,IL,Cook,Chicago,Humboldt Park,269585,2016,1.49,8.58,0.05357142857142857,0.031387319522912745
37,"6110 S Vernon Ave G, Chicago, IL 60637",900,Apt,1.0,3.0,Yes,Available Now,(773) 961-4367,http://chicagoha.gosection8.com/Section-8-housing-in-Chicago-IL/3-bedroom-1-bathroom-rental-Apt/4064659,41.7835,-87.6147,POINT (-87.6147 41.7835),170314206001,IL,Cook,Chicago,West Woodlawn,403353,2016,2.81,8.15,-0.04661654135338346,0.026813880126182965
38,"6022 S Rhodes Ave , Chicago, IL 60637",1200,Apt,1.0,4.0,Yes,Available Now,(773) 961-4367,http://chicagoha.gosection8.com/Section-8-housing-in-Chicago-IL/4-bedroom-1-bathroom-rental-Apt/4064660,41.7851,-87.6124,POINT (-87.61239999999999 41.7851),170314206001,IL,Cook,Chicago,West Woodlawn,403353,2016,2.81,8.15,-0.04661654135338346,0.026813880126182965
39,"8241 S Brandon Ave , Chicago, IL 60617",1200,Apt,1.0,3.0,Yes,Available Now,(773) 961-4367,http://chicagoha.gosection8.com/Section-8-housing-in-Chicago-IL/3-bedroom-1-bathroom-rental-Apt/4066519,41.745393,-87.54634,POINT (-87.54634 41.745393),170314601001,IL,Cook,Chicago,The Bush,403359,2016,2.23,6.7,,
40,"7515 S Rhodes Ave , Chicago, IL 60619",1350,House,2.5,6.0,Yes,Available Now,(773) 961-4367,http://chicagoha.gosection8.com/Section-8-housing-in-Chicago-IL/6-bedroom-2-full-bathroom-rental-House/4068050,41.758,-87.6111,POINT (-87.61109999999999 41.758),170316914004,IL,Cook,Chicago,Chatham,273222,2016,2.22,3.89,-0.003000750187546887,0.08653122648607976
41,"6730 S Laflin St , Chicago, IL 60636",1250,House,1.5,4.0,Yes,Available Now,(773) 961-4367,http://chicagoha.gosection8.com/Section-8-housing-in-Chicago-IL/4-bedroom-1-full-bathroom-rental-House/4068790,41.7713,-87.6619,POINT (-87.6619 41.7713),170316716003,IL,Cook,Chicago,Englewood,138261,2016,0.91,4.55,-0.018268467037331215,0.0744336569579288
42,"7121 S Greenwood Ave 1, Chicago, IL 60619",900,Apt,1.0,3.0,Yes,Available Now,(773) 961-4367,http://chicagoha.gosection8.com/Section-8-housing-in-Chicago-IL/3-bedroom-1-bathroom-rental-Apt/4069492,41.765327,-87.597898,POINT (-87.597898 41.765327),170318418002,IL,Cook,Chicago,Grand Crossing,276349,2016,2.34,6.23,-0.02107728337236534,0.058213716108452954
43,"6110 S Vernon Ave , Chicago, IL 60637",1250,Apt,1.0,4.0,Yes,Available Now,(773) 961-4367,http://chicagoha.gosection8.com/Section-8-housing-in-Chicago-IL/4-bedroom-1-bathroom-rental-Apt/4076796,41.7835,-87.6147,POINT (-87.6147 41.7835),170314206001,IL,Cook,Chicago,West Woodlawn,403353,2016,2.81,8.15,-0.04661654135338346,0.026813880126182965
44,"3334 W Walnut St , Chicago, IL 60624",1150,Apt,2.0,3.0,Yes,Available Now,(773) 961-4367,http://chicagoha.gosection8.com/Section-8-housing-in-Chicago-IL/3-bedroom-2-bathroom-rental-Apt/4077614,41.8856,-87.7101,POINT (-87.7101 41.8856),170318368002,IL,Cook,Chicago,East Garfield Park,269577,2016,2.85,6.58,-0.012162162162162163,0.03419972640218878
45,"3925 W Huron St , Chicago, IL 60624",950,Apt,1.5,2.0,Yes,Available Now,(773) 961-4367,http://chicagoha.gosection8.com/Section-8-housing-in-Chicago-IL/2-bedroom-1-full-bathroom-rental-Apt/4079069,41.8935,-87.7246,POINT (-87.7246 41.8935),170312315006,IL,Cook,Chicago,East Garfield Park,269577,2016,2.89,5.49,-0.012162162162162163,0.03419972640218878
46,"3334 W Walnut St , Chicago, IL 60624",1200,Apt,1.5,3.0,Yes,Available Now,(773) 961-4367,http://chicagoha.gosection8.com/Section-8-housing-in-Chicago-IL/3-bedroom-1-full-bathroom-rental-Apt/4079071,41.8856,-87.7101,POINT (-87.7101 41.8856),170318368002,IL,Cook,Chicago,East Garfield Park,269577,2016,2.85,6.58,-0.012162162162162163,0.03419972640218878
47,"1000 N Lawndale Ave , Chicago, IL 60651",850,Apt,1.0,2.0,Yes,Available Now,(773) 961-4367,http://chicagoha.gosection8.com/Section-8-housing-in-Chicago-IL/2-bedroom-1-bathroom-rental-Apt/4079507,41.8992,-87.7191,POINT (-87.7191 41.8992),170312312001,IL,Cook,Chicago,Humboldt Park,269585,2016,1.49,8.58,0.05357142857142857,0.031387319522912745
48,"9208 S Ellis Ave , Chicago, IL 60619",1500,House,1.0,5.0,Yes,Available Now,(773) 961-4367,http://chicagoha.gosection8.com/Section-8-housing-in-Chicago-IL/5-bedroom-1-bathroom-rental-House/4082746,41.7273,-87.6001,POINT (-87.6001 41.7273),170314701001,IL,Cook,Chicago,Burnside,137634,2016,1.57,10.99,0.01499605367008682,0.09720062208398134
49,"3000 W Marquette Rd , Chicago, IL 60629",650,Apt,1.0,1.0,Yes,Available Now,(773) 961-4367,http://chicagoha.gosection8.com/Section-8-housing-in-Chicago-IL/1-bedroom-1-bathroom-rental-Apt/4091177,41.7719,-87.6985,POINT (-87.6985 41.7719),170316608005,IL,Cook,Chicago,Marquette Park,403148,2016,2.76,8.84,0.029065200314218383,0.1
50,"3000 W Marquette Rd , Chicago, IL 60629",900,Apt,1.0,2.0,Yes,Available Now,(773) 961-4367,http://chicagoha.gosection8.com/Section-8-housing-in-Chicago-IL/2-bedroom-1-bathroom-rental-Apt/4091179,41.7719,-87.6985,POINT (-87.6985 41.7719),170316608005,IL,Cook,Chicago,Marquette Park,403148,2016,2.76,8.84,0.029065200314218383,0.1
51,"7021 S Woodlawn Ave , Chicago, IL 60637",1600,House,2.0,6.0,Yes,Available Now,(773) 961-4367,http://chicagoha.gosection8.com/Section-8-housing-in-Chicago-IL/6-bedroom-2-bathroom-rental-House/4091873,41.7671,-87.5948,POINT (-87.59480000000001 41.7671),170318418002,IL,Cook,Chicago,Grand Crossing,276349,2016,2.34,6.23,-0.02107728337236534,0.058213716108452954
52,"2036 W 68th Pl , Chicago, IL 60636",1200,House,1.5,6.0,Yes,Available Now,(773) 961-4367,http://chicagoha.gosection8.com/Section-8-housing-in-Chicago-IL/6-bedroom-1-full-bathroom-rental-House/4093982,41.7696,-87.6751,POINT (-87.6751 41.7696),170316714002,IL,Cook,Chicago,West Englewood,269612,2016,1.56,2.34,0.0024813895781637717,0.11303630363036303
53,"5228 S Michigan Ave , Chicago, IL 60615",1200,Apt,1.0,4.0,Yes,Available Now,(773) 961-4367,http://chicagoha.gosection8.com/Section-8-housing-in-Chicago-IL/4-bedroom-1-bathroom-rental-Apt/4094102,41.7992,-87.6226,POINT (-87.62260000000001 41.7992),170318361001,IL,Cook,Chicago,Washington Park,275927,2016,3.91,8.14,-0.03381294964028777,0.0387192851824274
54,"9210 S Ellis Ave , Chicago, IL 60619",1500,House,2.0,6.0,Yes,Available Now,(773) 961-4367,http://chicagoha.gosection8.com/Section-8-housing-in-Chicago-IL/6-bedroom-2-bathroom-rental-House/4095166,41.7272,-87.6001,POINT (-87.6001 41.7272),170314701001,IL,Cook,Chicago,Burnside,137634,2016,1.57,10.99,0.01499605367008682,0.09720062208398134
55,"1000 N Lawndale Ave , Chicago, IL 60651",1050,Apt,2.0,3.0,Yes,Available Now,(773) 961-4367,http://chicagoha.gosection8.com/Section-8-housing-in-Chicago-IL/3-bedroom-2-bathroom-rental-Apt/4098191,41.8992,-87.7192,POINT (-87.7192 41.8992),170312312001,IL,Cook,Chicago,Humboldt Park,269585,2016,1.49,8.58,0.05357142857142857,0.031387319522912745
56,"6110 S Maplewood Ave 1, Chicago, IL 60629",1100,Apt,1.0,3.0,Yes,Check Availability,,http://chicagoha.gosection8.com/Section-8-housing-in-Chicago-IL/3-bedroom-1-bathroom-rental-Apt/4108762,41.7825,-87.6877,POINT (-87.68770000000001 41.7825),170318350004,IL,Cook,Chicago,Chicago Lawn,269576,2016,1.82,3.42,0.04265402843601896,0.09393939393939393
57,"118 E 59th St , Chicago, IL 60637",1200,House,2.5,3.0,Yes,Available Now,(773) 961-4367,http://chicagoha.gosection8.com/Section-8-housing-in-Chicago-IL/3-bedroom-2-full-bathroom-rental-House/4108767,41.7877,-87.6214,POINT (-87.62139999999999 41.7877),170314005002,IL,Cook,Chicago,Washington Park,275927,2016,3.63,8.16,-0.03381294964028777,0.0387192851824274
58,"6133 S Indiana Ave , Chicago, IL 60637",900,Apt,1.0,2.0,Yes,Check Availability,,http://chicagoha.gosection8.com/Section-8-housing-in-Chicago-IL/2-bedroom-1-bathroom-rental-Apt/4114480,41.782053,-87.621334,POINT (-87.621334 41.782053),170314008002,IL,Cook,Chicago,Washington Park,275927,2016,3.71,6.94,-0.03381294964028777,0.0387192851824274
59,"7651 S Langley Ave , Chicago, IL 60619",1400,House,1.5,4.0,Yes,Available Now,(773) 961-4367,http://chicagoha.gosection8.com/Section-8-housing-in-Chicago-IL/4-bedroom-1-full-bathroom-rental-House/4115673,41.7553,-87.6074,POINT (-87.6074 41.7553),170316914001,IL,Cook,Chicago,Chatham,273222,2016,3.95,6.58,-0.003000750187546887,0.08653122648607976
60,"9528 S Avenue N 2, Chicago, IL 60617",800,Apt,1.0,3.0,Yes,Check Availability,,http://chicagoha.gosection8.com/Section-8-housing-in-Chicago-IL/3-bedroom-1-bathroom-rental-Apt/4120440,41.7224327,-87.5389131,POINT (-87.5389131 41.7224327),170315202001,IL,Cook,Chicago,East Side,138166,2016,1.41,6.1,0.04523026315789474,0.10700236034618411
61,"1504 S Hamlin Ave , Chicago, IL 60623",1050,Apt,1.5,3.0,Yes,Available Now,(773) 961-4367,http://chicagoha.gosection8.com/Section-8-housing-in-Chicago-IL/3-bedroom-1-full-bathroom-rental-Apt/4122266,41.8605,-87.7205,POINT (-87.7205 41.8605),170318387002,IL,Cook,Chicago,Archer Heights,269568,2016,3.44,9.92,-0.015256588072122053,0.06267605633802817
62,"7201 S Vincennes Ave , Chicago, IL 60621",850,Apt,1.0,1.0,Yes,Available Now,(773) 961-4367,http://chicagoha.gosection8.com/Section-8-housing-in-Chicago-IL/1-bedroom-1-bathroom-rental-Apt/4138368,41.7634,-87.6286,POINT (-87.62860000000001 41.7634),170316911004,IL,Cook,Chicago,Park Manor,403356,2016,0.96,4.79,-0.023148148148148147,0.06398104265402843
63,"7201 S Vincennes Ave , Chicago, IL 60621",800,Apt,1.0,2.0,Yes,Available Now,(773) 961-4367,http://chicagoha.gosection8.com/Section-8-housing-in-Chicago-IL/2-bedroom-1-bathroom-rental-Apt/4138375,41.7634,-87.6286,POINT (-87.62860000000001 41.7634),170316911004,IL,Cook,Chicago,Park Manor,403356,2016,0.96,4.79,-0.023148148148148147,0.06398104265402843
64,"6751 S Chappel Ave , Chicago, IL 60649",800,Apt,1.0,2.0,Yes,Available Now,(773) 961-4367,http://chicagoha.gosection8.com/Section-8-housing-in-Chicago-IL/2-bedroom-1-bathroom-rental-Apt/4138452,41.7719,-87.5749,POINT (-87.5749 41.7719),170314301014,IL,Cook,Chicago,South Shore,269608,2016,4.05,10.93,-0.028191072826938137,0.038678485092667206
65,"1418 E 67th Pl , Chicago, IL 60637",1000,Apt,1.0,3.0,Yes,Available Now,(773) 961-4367,http://chicagoha.gosection8.com/Section-8-housing-in-Chicago-IL/3-bedroom-1-bathroom-rental-Apt/4138461,41.773,-87.5908,POINT (-87.5908 41.773),170314303001,IL,Cook,Chicago,Grand Crossing,276349,2016,2.9,7.73,-0.02107728337236534,0.058213716108452954
66,"1418 E 67th Pl , Chicago, IL 60637",900,Apt,1.0,2.0,Yes,Available Now,(773) 961-4367,http://chicagoha.gosection8.com/Section-8-housing-in-Chicago-IL/2-bedroom-1-bathroom-rental-Apt/4138465,41.773,-87.5908,POINT (-87.5908 41.773),170314303001,IL,Cook,Chicago,Grand Crossing,276349,2016,2.9,7.73,-0.02107728337236534,0.058213716108452954
67,"9101 S Cottage Grove Ave , Chicago, IL 60619",850,Apt,1.0,1.0,Yes,Available Now,(773) 961-4367,http://chicagoha.gosection8.com/Section-8-housing-in-Chicago-IL/1-bedroom-1-bathroom-rental-Apt/4138469,41.7293,-87.6046,POINT (-87.6046 41.7293),170314408002,IL,Cook,Chicago,Burnside,137634,2016,3.25,8.66,0.01499605367008682,0.09720062208398134
68,"9101 S Cottage Grove Ave , Chicago, IL 60619",900,Apt,1.0,2.0,Yes,Available Now,(773) 961-4367,http://chicagoha.gosection8.com/Section-8-housing-in-Chicago-IL/2-bedroom-1-bathroom-rental-Apt/4138471,41.7293,-87.6046,POINT (-87.6046 41.7293),170314408002,IL,Cook,Chicago,Burnside,137634,2016,3.25,8.66,0.01499605367008682,0.09720062208398134
69,"8046 S Marquette Ave , Chicago, IL 60617",1200,Apt,2.0,4.0,Yes,Available Now,(773) 961-4367,http://chicagoha.gosection8.com/Section-8-housing-in-Chicago-IL/4-bedroom-2-bathroom-rental-Apt/4141218,41.7486,-87.5592,POINT (-87.5592 41.7486),170314603022,IL,Cook,Chicago,South Chicago,140437,2016,4.02,10.27,0.02642113690952762,0.06708268330733229
70,"8426 S Kerfoot Ave , Chicago, IL 60620",1500,House,2.0,6.0,Yes,Available Now,(773) 961-4367,http://chicagoha.gosection8.com/Section-8-housing-in-Chicago-IL/6-bedroom-2-bathroom-rental-House/4141220,41.7406,-87.6401,POINT (-87.6401 41.7406),170317109002,IL,Cook,Chicago,Gresham,269571,2016,0.78,3.49,-0.0031007751937984496,0.09720062208398134
71,"8834 S Exchange Ave , Chicago, IL 60617",950,Apt,1.0,3.0,Yes,Available Now,(773) 961-4367,http://chicagoha.gosection8.com/Section-8-housing-in-Chicago-IL/3-bedroom-1-bathroom-rental-Apt/4142397,41.7345,-87.5531,POINT (-87.5531 41.7345),170314607002,IL,Cook,Chicago,South Chicago,140437,2016,4.02,6.9,0.02642113690952762,0.06708268330733229
72,"6832 S Dorchester Ave , Chicago, IL 60637",900,Apt,1.0,3.0,Yes,Available Now,(773) 961-4367,http://chicagoha.gosection8.com/Section-8-housing-in-Chicago-IL/3-bedroom-1-bathroom-rental-Apt/4146411,41.7705,-87.5914,POINT (-87.59139999999999 41.7705),170314303003,IL,Cook,Chicago,Grand Crossing,276349,2016,1.14,4.55,-0.02107728337236534,0.058213716108452954
73,"6618 S Marquette Rd , Chicago, IL 60637",900,Apt,1.0,3.0,Yes,Available Now,(773) 961-4367,http://chicagoha.gosection8.com/Section-8-housing-in-Chicago-IL/3-bedroom-1-bathroom-rental-Apt/4146413,41.7742,-87.6133,POINT (-87.6133 41.7742),170314207005,IL,Cook,Chicago,West Woodlawn,403353,2016,9.74,14.36,-0.04661654135338346,0.026813880126182965
74,"6936 S Kimbark Ave , Chicago, IL 60637",900,Apt,1.0,3.0,Yes,Available Now,(773) 961-4367,http://chicagoha.gosection8.com/Section-8-housing-in-Chicago-IL/3-bedroom-1-bathroom-rental-Apt/4146417,41.7688,-87.5943,POINT (-87.5943 41.7688),170318418002,IL,Cook,Chicago,Grand Crossing,276349,2016,2.34,6.23,-0.02107728337236534,0.058213716108452954
75,"1307 E 69th St , Chicago, IL 60637",900,Apt,1.0,3.0,Yes,Available Now,(773) 961-4367,http://chicagoha.gosection8.com/Section-8-housing-in-Chicago-IL/3-bedroom-1-bathroom-rental-Apt/4146422,41.7696,-87.5937,POINT (-87.5937 41.7696),170318418002,IL,Cook,Chicago,Grand Crossing,276349,2016,2.34,6.23,-0.02107728337236534,0.058213716108452954
76,"6149 S Campbell Ave , Chicago, IL 60629",900,Apt,1.0,3.0,Yes,Available Now,(773) 961-4367,http://chicagoha.gosection8.com/Section-8-housing-in-Chicago-IL/3-bedroom-1-bathroom-rental-Apt/4146428,41.7814,-87.686,POINT (-87.68600000000001 41.7814),170318350002,IL,Cook,Chicago,Chicago Lawn,269576,2016,4.37,12.14,0.04265402843601896,0.09393939393939393
77,"7111 S Ingleside Ave , Chicago, IL 60619",900,Apt,1.0,3.0,Yes,Available Now,(773) 961-4367,http://chicagoha.gosection8.com/Section-8-housing-in-Chicago-IL/3-bedroom-1-bathroom-rental-Apt/4146438,41.7655,-87.6015,POINT (-87.6015 41.7655),170318418002,IL,Cook,Chicago,Grand Crossing,276349,2016,2.34,6.23,-0.02107728337236534,0.058213716108452954
78,"7019 S Dante Ave , Chicago, IL 60637",900,Apt,1.0,3.0,Yes,Available Now,(773) 961-4367,http://chicagoha.gosection8.com/Section-8-housing-in-Chicago-IL/3-bedroom-1-bathroom-rental-Apt/4146444,41.7673,-87.589,POINT (-87.589 41.7673),170314303002,IL,Cook,Chicago,Grand Crossing,276349,2016,3.77,10.04,-0.02107728337236534,0.058213716108452954
79,"5459 W Walton St , Chicago, IL 60651",1100,Apt,1.0,4.0,Yes,Available Now,(773) 961-4367,http://chicagoha.gosection8.com/Section-8-housing-in-Chicago-IL/4-bedroom-1-bathroom-rental-Apt/4146450,41.8973,-87.763,POINT (-87.76300000000001 41.8973),170312512003,IL,Cook,Chicago,South Austin,403120,2016,2.1,5.59,-0.003479471120389701,0.05377094972067039
80,"1133 W 110th Pl , Chicago, IL 60643",1500,House,2.0,5.0,Yes,Available Now,(773) 961-4367,http://chicagoha.gosection8.com/Section-8-housing-in-Chicago-IL/5-bedroom-2-bathroom-rental-House/4155736,41.6929,-87.651,POINT (-87.651 41.6929),170317501004,IL,Cook,Chicago,Morgan Park,269595,2016,0.4,8.4,-0.008178438661710037,0.10044977511244378
81,"1249 W 108th Pl , Chicago, IL 60643",950,House,2.0,2.0,Yes,Available Now,(773) 961-4367,http://chicagoha.gosection8.com/Section-8-housing-in-Chicago-IL/2-bedroom-2-bathroom-rental-House/4156258,41.6965,-87.6542,POINT (-87.6542 41.6965),170317501004,IL,Cook,Chicago,Morgan Park,269595,2016,0.4,8.4,-0.008178438661710037,0.10044977511244378
82,"640 N Troy St 2, Chicago, IL 60612",1000,Apt,1.0,3.0,Yes,Available Now,(773) 961-4367,http://chicagoha.gosection8.com/Section-8-housing-in-Chicago-IL/3-bedroom-1-bathroom-rental-Apt/4158429,41.893132,-87.705579,POINT (-87.705579 41.893132),170318367002,IL,Cook,Chicago,East Garfield Park,269577,2016,2.67,6.87,-0.012162162162162163,0.03419972640218878
83,"8109 S Muskegon Ave 1, Chicago, IL 60617",1100,Apt,1.0,3.0,Yes,Available Now,(773) 961-4367,http://chicagoha.gosection8.com/Section-8-housing-in-Chicago-IL/3-bedroom-1-bathroom-rental-Apt/4159303,41.7479,-87.5549,POINT (-87.5549 41.7479),170314603024,IL,Cook,Chicago,South Chicago,140437,2016,2.99,5.97,0.02642113690952762,0.06708268330733229
84,"7111 S Eberhart Ave 1fl, Chicago, IL 60619",1000,Apt,1.0,3.0,Yes,Check Availability,,http://chicagoha.gosection8.com/Section-8-housing-in-Chicago-IL/3-bedroom-1-bathroom-rental-Apt/4160923,41.7653,-87.6125,POINT (-87.6125 41.7653),170316909004,IL,Cook,Chicago,Park Manor,403356,2016,4.78,9.13,-0.023148148148148147,0.06398104265402843
85,"1347 S Avers Ave 1, Chicago, IL 60623",950,Apt,1.0,2.0,Yes,Check Availability,,http://chicagoha.gosection8.com/Section-8-housing-in-Chicago-IL/2-bedroom-1-bathroom-rental-Apt/4172183,41.863,-87.7211,POINT (-87.72110000000001 41.863),170318387001,IL,Cook,Chicago,Archer Heights,269568,2016,1.95,4.78,-0.015256588072122053,0.06267605633802817
86,"3617 W Grenshaw St  2, Chicago, IL 60624",1250,Apt,1.0,3.0,Yes,Available Now,(312) 434-6976,http://chicagoha.gosection8.com/Section-8-housing-in-Chicago-IL/3-bedroom-1-bathroom-rental-Apt/4175158,41.8671,-87.7162,POINT (-87.7162 41.8671),170318430001,IL,Cook,Chicago,Homan Square,403327,2016,2.29,9.4,,
87,"6618 S Maryland Ave 2, Chicago, IL 60637",1100,Apt,1.0,3.0,Yes,Check Availability,,http://chicagoha.gosection8.com/Section-8-housing-in-Chicago-IL/3-bedroom-1-bathroom-rental-Apt/4177197,41.774361,-87.604922,POINT (-87.604922 41.774361),170314208002,IL,Cook,Chicago,Woodlawn,276138,2016,3.46,8.07,-0.02700781805259417,0.02410518626734843
88,"1547 S Kolin Ave Apt, Chicago, IL 60623",1100,Apt,1.0,2.0,Yes,Available Now,(312) 434-6976,http://chicagoha.gosection8.com/Section-8-housing-in-Chicago-IL/2-bedroom-1-bathroom-rental-Apt/4180384,41.8592,-87.7333,POINT (-87.7333 41.8592),170312909003,IL,Cook,Chicago,Archer Heights,269568,2016,1.68,6.38,-0.015256588072122053,0.06267605633802817
89,"7020 S Stewart Ave 1, Chicago, IL 60621",1100,Apt,1.0,3.0,Yes,Check Availability,,http://chicagoha.gosection8.com/Section-8-housing-in-Chicago-IL/3-bedroom-1-bathroom-rental-Apt/4186196,41.7664479,-87.634343,POINT (-87.634343 41.7664479),170316903002,IL,Cook,Chicago,Englewood,138261,2016,1.03,2.69,-0.018268467037331215,0.0744336569579288
90,"3717 W Ohio St 2, Chicago, IL 60624",1200,Apt,1.0,3.0,Yes,Available Now,(708) 749-8000,http://chicagoha.gosection8.com/Section-8-housing-in-Chicago-IL/3-bedroom-1-bathroom-rental-Apt/4186729,41.8915,-87.7193,POINT (-87.7193 41.8915),170312315005,IL,Cook,Chicago,East Garfield Park,269577,2016,0.84,2.94,-0.012162162162162163,0.03419972640218878
91,"5842 S May St , Chicago, IL 60621",1250,Apt,1.0,5.0,Yes,Check Availability,,http://chicagoha.gosection8.com/Section-8-housing-in-Chicago-IL/5-bedroom-1-bathroom-rental-Apt/4187220,41.787401,-87.653844,POINT (-87.65384400000001 41.787401),170316805002,IL,Cook,Chicago,Englewood,138261,2016,5.24,10.04,-0.018268467037331215,0.0744336569579288
92,"8040 S Maryland Ave 3, Chicago, IL 60619",1075,Apt,1.0,3.0,Yes,Check Availability,,http://chicagoha.gosection8.com/Section-8-housing-in-Chicago-IL/3-bedroom-1-bathroom-rental-Apt/4188415,41.748245,-87.604218,POINT (-87.604218 41.748245),170314401014,IL,Cook,Chicago,East Chatham,403360,2016,5.19,12.06,-0.04291497975708502,0.05499153976311337
93,"636 N Lavergne Ave 2n, Chicago, IL 60644",1000,Apt,1.0,2.0,Yes,Check Availability,,http://chicagoha.gosection8.com/Section-8-housing-in-Chicago-IL/2-bedroom-1-bathroom-rental-Apt/4188550,41.8924258,-87.7506069,POINT (-87.75060689999999 41.8924258),170312516001,IL,Cook,Chicago,South Austin,403120,2016,1.82,5.82,-0.003479471120389701,0.05377094972067039
94,"4926 S Vincennes Ave , Chicago, IL 60615",1500,Apt,2.0,3.0,Yes,Check Availability,,http://chicagoha.gosection8.com/Section-8-housing-in-Chicago-IL/3-bedroom-2-bathroom-rental-Apt/4191152,41.8049469,-87.6138569,POINT (-87.6138569 41.8049469),170313819001,IL,Cook,Chicago,Bronzeville,403145,2016,1.3,5.63,0.0026827632461435278,0.030100334448160536
95,"8200 S Maryland Ave , Chicago, IL 60619",1025,Apt,1.0,2.0,Yes,Check Availability,,http://chicagoha.gosection8.com/Section-8-housing-in-Chicago-IL/2-bedroom-1-bathroom-rental-Apt/4193334,41.745601,-87.604151,POINT (-87.604151 41.745601),170314401024,IL,Cook,Chicago,East Chatham,403360,2016,8.2,13.56,-0.04291497975708502,0.05499153976311337
96,"8200 S Maryland Ave , Chicago, IL 60619",925,Apt,1.0,1.0,Yes,Check Availability,,http://chicagoha.gosection8.com/Section-8-housing-in-Chicago-IL/1-bedroom-1-bathroom-rental-Apt/4193335,41.745601,-87.604151,POINT (-87.604151 41.745601),170314401024,IL,Cook,Chicago,East Chatham,403360,2016,8.2,13.56,-0.04291497975708502,0.05499153976311337
97,"8929 S Buffalo Ave 1, Chicago, IL 60617",1200,Apt,1.0,3.0,Yes,Check Availability,,http://chicagoha.gosection8.com/Section-8-housing-in-Chicago-IL/3-bedroom-1-bathroom-rental-Apt/4194938,41.732903,-87.543948,POINT (-87.543948 41.732903),170318339001,IL,Cook,Chicago,South Chicago,140437,2016,1.75,5.25,0.02642113690952762,0.06708268330733229
98,"5437 S Laflin St , Chicago, IL 60609",1050,Apt,1.0,3.0,Yes,Available Now,(773) 961-4367,http://chicagoha.gosection8.com/Section-8-housing-in-Chicago-IL/3-bedroom-1-bathroom-rental-Apt/4198402,41.7948,-87.662,POINT (-87.66200000000001 41.7948),170316119001,IL,Cook,Chicago,Back of the Yards,403146,2016,1.98,4.62,0.0,0.08339828526890102
99,"11807 S Emerald Ave , Chicago, IL 60628",1250,House,2.0,5.0,Yes,Available Now,(773) 961-4367,http://chicagoha.gosection8.com/Section-8-housing-in-Chicago-IL/5-bedroom-2-bathroom-rental-House/4198409,41.6794,-87.6404,POINT (-87.6404 41.6794),170315302003,IL,Cook,Chicago,West Pullman,140913,2016,2.06,5.15,0.009828009828009828,0.12570965125709652
100,"8006 S Ingleside Ave , Chicago, IL 60619",1400,House,2.0,5.0,Yes,Available Now,(773) 961-4367,http://chicagoha.gosection8.com/Section-8-housing-in-Chicago-IL/5-bedroom-2-bathroom-rental-House/4198412,41.7492,-87.6018,POINT (-87.6018 41.7492),170314401014,IL,Cook,Chicago,East Chatham,403360,2016,5.19,12.06,-0.04291497975708502,0.05499153976311337
101,"7822 S Ingleside Ave , Chicago, IL 60619",1300,House,2.0,4.0,Yes,Available Now,(773) 961-4367,http://chicagoha.gosection8.com/Section-8-housing-in-Chicago-IL/4-bedroom-2-bathroom-rental-House/4198415,41.7524,-87.6019,POINT (-87.6019 41.7524),170316915003,IL,Cook,Chicago,Grand Crossing,276349,2016,5.71,13.57,-0.02107728337236534,0.058213716108452954
102,"8622 S Marquette Ave , Chicago, IL 60617",1400,House,2.0,4.0,Yes,Available Now,(773) 961-4367,http://chicagoha.gosection8.com/Section-8-housing-in-Chicago-IL/4-bedroom-2-bathroom-rental-House/4198417,41.7383,-87.5591,POINT (-87.5591 41.7383),170314603012,IL,Cook,Chicago,South Chicago,140437,2016,2.69,6.45,0.02642113690952762,0.06708268330733229
103,"3640 W Thomas St , Chicago, IL 60651",950,Apt,1.0,2.0,Yes,Available Now,(773) 961-4367,http://chicagoha.gosection8.com/Section-8-housing-in-Chicago-IL/2-bedroom-1-bathroom-rental-Apt/4198418,41.901038,-87.718187,POINT (-87.718187 41.901038),170312312001,IL,Cook,Chicago,Humboldt Park,269585,2016,1.49,8.58,0.05357142857142857,0.031387319522912745
104,"7715 S South Shore Dr , Chicago, IL 60649",780,Apt,1.0,1.0,Yes,Available Now,(312) 361-3145,http://chicagoha.gosection8.com/Section-8-housing-in-Chicago-IL/1-bedroom-1-bathroom-rental-Apt/4200448,41.7567,-87.5529,POINT (-87.55289999999999 41.7567),170314314003,IL,Cook,Chicago,South Shore,269608,2016,5.56,11.46,-0.028191072826938137,0.038678485092667206
105,"646 W 61st St 1  , Chicago, IL 60621",1200,Apt,1.5,4.0,Yes,Available Now,(708) 257-6009,http://chicagoha.gosection8.com/Section-8-housing-in-Chicago-IL/4-bedroom-1-full-bathroom-rental-Apt/4204761,41.7837,-87.6419,POINT (-87.64190000000001 41.7837),170318348003,IL,Cook,Chicago,Englewood,138261,2016,1.59,3.17,-0.018268467037331215,0.0744336569579288
106,"3509 S Western Blvd 2, Chicago, IL 60609",1000,Apt,1.0,3.0,Yes,Check Availability,,http://chicagoha.gosection8.com/Section-8-housing-in-Chicago-IL/3-bedroom-1-bathroom-rental-Apt/4205319,41.829962,-87.684023,POINT (-87.684023 41.829962),170315905001,IL,Cook,Chicago,McKinley Park,139408,2016,0.28,1.71,-0.005372733378106112,0.11478730587440918
107,"1208 W 52nd St 1, Chicago, IL 60609",950,Apt,1.0,3.0,Yes,Check Availability,,http://chicagoha.gosection8.com/Section-8-housing-in-Chicago-IL/3-bedroom-1-bathroom-rental-Apt/4205392,41.799874,-87.6554589,POINT (-87.6554589 41.799874),170316119002,IL,Cook,Chicago,Back of the Yards,403146,2016,1.92,5.77,0.0,0.08339828526890102
108,"5953 S Elizabeth St 2, Chicago, IL 60636",1100,Apt,1.0,3.0,Yes,Check Availability,,http://chicagoha.gosection8.com/Section-8-housing-in-Chicago-IL/3-bedroom-1-bathroom-rental-Apt/4207065,41.785335,-87.655514,POINT (-87.655514 41.785335),170316709001,IL,Cook,Chicago,Englewood,138261,2016,2.4,5.6,-0.018268467037331215,0.0744336569579288
109,"6955 S Maplewood Ave 1, Chicago, IL 60629",850,Apt,1.0,2.0,Yes,Check Availability,,http://chicagoha.gosection8.com/Section-8-housing-in-Chicago-IL/2-bedroom-1-bathroom-rental-Apt/4208623,41.7667,-87.687,POINT (-87.687 41.7667),170316609002,IL,Cook,Chicago,Lithuanian Plaza,403339,2016,1.82,4.55,,
110,"1630 S Karlov Ave 3, Chicago, IL 60623",1290,Apt,1.0,4.0,Yes,Check Availability,,http://chicagoha.gosection8.com/Section-8-housing-in-Chicago-IL/4-bedroom-1-bathroom-rental-Apt/4208937,41.857855,-87.727712,POINT (-87.727712 41.857855),170312925001,IL,Cook,Chicago,Archer Heights,269568,2016,3.45,6.21,-0.015256588072122053,0.06267605633802817
111,"7822 S Ingleside Ave , Chicago, IL 60619",1300,House,1.0,4.0,Yes,Available Now,(773) 961-4367,http://chicagoha.gosection8.com/Section-8-housing-in-Chicago-IL/4-bedroom-1-bathroom-rental-House/4216546,41.7524,-87.6019,POINT (-87.6019 41.7524),170316915003,IL,Cook,Chicago,Grand Crossing,276349,2016,5.71,13.57,-0.02107728337236534,0.058213716108452954
112,"11741 S Sangamon St 2, Chicago, IL 60643",1300,Apt,1.0,4.0,Yes,Available Now,(773) 961-4367,http://chicagoha.gosection8.com/Section-8-housing-in-Chicago-IL/4-bedroom-1-bathroom-rental-Apt/4216551,41.6802,-87.6453,POINT (-87.64530000000001 41.6802),170315303001,IL,Cook,Chicago,West Pullman,140913,2016,1.9,4.43,0.009828009828009828,0.12570965125709652
113,"12354 S Lowe Ave , Chicago, IL 60628",1300,House,1.0,3.0,Yes,Available Now,(773) 961-4367,http://chicagoha.gosection8.com/Section-8-housing-in-Chicago-IL/3-bedroom-1-bathroom-rental-House/4216558,41.669,-87.6383,POINT (-87.6383 41.669),170315305032,IL,Cook,Chicago,West Pullman,140913,2016,5.34,12.14,0.009828009828009828,0.12570965125709652
114,"12231 S Loomis St , Chicago, IL 60643",1300,House,1.0,4.0,Yes,Available Now,(773) 961-4367,http://chicagoha.gosection8.com/Section-8-housing-in-Chicago-IL/4-bedroom-1-bathroom-rental-House/4216570,41.6712,-87.656,POINT (-87.65600000000001 41.6712),170315304002,IL,Cook,Chicago,West Pullman,140913,2016,2.86,5.71,0.009828009828009828,0.12570965125709652
115,"3638 W Thomas St 1, Chicago, IL 60651",950,Apt,1.0,2.0,Yes,Available Now,(773) 961-4367,http://chicagoha.gosection8.com/Section-8-housing-in-Chicago-IL/2-bedroom-1-bathroom-rental-Apt/4216591,41.90104,-87.717954,POINT (-87.71795400000001 41.90104),170312312001,IL,Cook,Chicago,Humboldt Park,269585,2016,1.49,8.58,0.05357142857142857,0.031387319522912745
116,"8954 S Bishop St , Chicago, IL 60620",1300,House,1.0,3.0,Yes,Available Now,(773) 961-4367,http://chicagoha.gosection8.com/Section-8-housing-in-Chicago-IL/3-bedroom-1-bathroom-rental-House/4216608,41.7306,-87.6595,POINT (-87.65949999999999 41.7306),170317302014,IL,Cook,Chicago,Brainerd,403378,2016,1.88,6.07,0.0030959752321981426,0.11265432098765432
117,"1735 W 79th St , Chicago, IL 60620",755,Apt,1.0,1.0,Yes,Available Now,(312) 361-3145,http://chicagoha.gosection8.com/Section-8-housing-in-Chicago-IL/1-bedroom-1-bathroom-rental-Apt/4217122,41.7501,-87.6673,POINT (-87.6673 41.7501),170317105002,IL,Cook,Chicago,Gresham,269571,2016,3.28,5.9,-0.0031007751937984496,0.09720062208398134
118,"5455 S Ingleside Ave 2w, Chicago, IL 60615",1100,Apt,1.0,2.0,Yes,Check Availability,,http://chicagoha.gosection8.com/Section-8-housing-in-Chicago-IL/2-bedroom-1-bathroom-rental-Apt/4218995,41.7961,-87.6023,POINT (-87.6023 41.7961),170314105001,IL,Cook,Chicago,Hyde Park,269586,2016,1.17,3.52,0.06304493628437291,-0.015141955835962145
119,"9421 S Burnside Ave , Chicago, IL 60619",1500,House,3.5,4.0,Yes,Available Now,(773) 961-4367,http://chicagoha.gosection8.com/Section-8-housing-in-Chicago-IL/4-bedroom-3-full-bathroom-rental-House/4225725,41.7232,-87.6059,POINT (-87.60590000000001 41.7232),170314409002,IL,Cook,Chicago,Burnside,137634,2016,1.65,4.95,0.01499605367008682,0.09720062208398134
120,"7346 S Yale Ave 1, Chicago, IL 60621",1000,Apt,1.0,2.0,Yes,Available Now,(773) 961-4367,http://chicagoha.gosection8.com/Section-8-housing-in-Chicago-IL/2-bedroom-1-bathroom-rental-Apt/4225729,41.7603,-87.6312,POINT (-87.63120000000001 41.7603),170316911002,IL,Cook,Chicago,Englewood,138261,2016,3.11,6.22,-0.018268467037331215,0.0744336569579288
121,"7346 S Yale Ave 2, Chicago, IL 60621",1000,Apt,1.0,3.0,Yes,Available Now,(773) 961-4367,http://chicagoha.gosection8.com/Section-8-housing-in-Chicago-IL/3-bedroom-1-bathroom-rental-Apt/4225731,41.7603,-87.6312,POINT (-87.63120000000001 41.7603),170316911002,IL,Cook,Chicago,Englewood,138261,2016,3.11,6.22,-0.018268467037331215,0.0744336569579288
122,"1541 S Kostner Ave 1, Chicago, IL 60623",1100,Apt,1.0,2.0,Yes,Check Availability,,http://chicagoha.gosection8.com/Section-8-housing-in-Chicago-IL/2-bedroom-1-bathroom-rental-Apt/4226320,41.859354,-87.734396,POINT (-87.734396 41.859354),170312909003,IL,Cook,Chicago,Archer Heights,269568,2016,1.68,6.38,-0.015256588072122053,0.06267605633802817
123,"9528 S Avenue N 1, Chicago, IL 60617",900,Apt,1.0,3.0,Yes,Check Availability,,http://chicagoha.gosection8.com/Section-8-housing-in-Chicago-IL/3-bedroom-1-bathroom-rental-Apt/4228732,41.7224327,-87.5389131,POINT (-87.5389131 41.7224327),170315202001,IL,Cook,Chicago,East Side,138166,2016,1.41,6.1,0.04523026315789474,0.10700236034618411
124,"7615 S Morgan St B, Chicago, IL 60620",1100,Apt,1.0,2.0,Yes,Available Now,(773) 961-4367,http://chicagoha.gosection8.com/Section-8-housing-in-Chicago-IL/2-bedroom-1-bathroom-rental-Apt/4229161,41.755539,-87.64865,POINT (-87.64865 41.755539),170317102002,IL,Cook,Chicago,Gresham,269571,2016,4.0,8.0,-0.0031007751937984496,0.09720062208398134
125,"7409 S Yates Blvd Yates, Chicago, IL 60649",680,Apt,1.0,1.0,Yes,Available Now,(312) 361-3145,http://chicagoha.gosection8.com/Section-8-housing-in-Chicago-IL/1-bedroom-1-bathroom-rental-Apt/4229262,41.7604,-87.566,POINT (-87.566 41.7604),170314313021,IL,Cook,Chicago,South Shore,269608,2016,2.96,8.52,-0.028191072826938137,0.038678485092667206
126,"7439 S Harvard Ave , Chicago, IL 60621",1000,Apt,1.0,4.0,Yes,Available Now,(773) 317-3767,http://chicagoha.gosection8.com/Section-8-housing-in-Chicago-IL/4-bedroom-1-bathroom-rental-Apt/4231039,41.7587,-87.6329,POINT (-87.63290000000001 41.7587),170316911003,IL,Cook,Chicago,Englewood,138261,2016,4.69,10.8,-0.018268467037331215,0.0744336569579288
127,"5953 S Prairie Ave , Chicago, IL 60637",1200,Townhouse,1.5,3.0,Yes,Available Now,(773) 961-4367,http://chicagoha.gosection8.com/Section-8-housing-in-Chicago-IL/3-bedroom-1-full-bathroom-rental-Townhouse-Villa/4235267,41.786,-87.6185,POINT (-87.6185 41.786),170318345001,IL,Cook,Chicago,Washington Park,275927,2016,3.0,7.07,-0.03381294964028777,0.0387192851824274
128,"4510 S Lowe Ave 1f, Chicago, IL 60609",950,Apt,1.0,2.0,Yes,Available Now,(773) 961-4367,http://chicagoha.gosection8.com/Section-8-housing-in-Chicago-IL/2-bedroom-1-bathroom-rental-Apt/4235275,41.8123,-87.6421,POINT (-87.6421 41.8123),170318426003,IL,Cook,Chicago,Canaryville,403340,2016,2.08,3.47,-0.01406563965170797,0.11548913043478261
129,"4510 S Lowe Ave 1r, Chicago, IL 60609",800,Apt,1.0,1.0,Yes,Available Now,(773) 961-4367,http://chicagoha.gosection8.com/Section-8-housing-in-Chicago-IL/1-bedroom-1-bathroom-rental-Apt/4235277,41.8123,-87.6421,POINT (-87.6421 41.8123),170318426003,IL,Cook,Chicago,Canaryville,403340,2016,2.08,3.47,-0.01406563965170797,0.11548913043478261
130,"4510 S Lowe Ave 2, Chicago, IL 60609",1350,Apt,1.5,4.0,Yes,Available Now,(773) 961-4367,http://chicagoha.gosection8.com/Section-8-housing-in-Chicago-IL/4-bedroom-1-full-bathroom-rental-Apt/4235279,41.8123,-87.6421,POINT (-87.6421 41.8123),170318426003,IL,Cook,Chicago,Canaryville,403340,2016,2.08,3.47,-0.01406563965170797,0.11548913043478261
131,"7807 S Burnham Ave , Chicago, IL 60649",1600,House,2.0,6.0,Yes,Available Now,(773) 961-4367,http://chicagoha.gosection8.com/Section-8-housing-in-Chicago-IL/6-bedroom-2-bathroom-rental-House/4235281,41.7533,-87.5566,POINT (-87.5566 41.7533),170314313011,IL,Cook,Chicago,South Shore,269608,2016,3.09,6.19,-0.028191072826938137,0.038678485092667206
132,"8138 S Escanaba Ave , Chicago, IL 60617",1400,House,2.0,5.0,Yes,Available Now,(773) 961-4367,http://chicagoha.gosection8.com/Section-8-housing-in-Chicago-IL/5-bedroom-2-bathroom-rental-House/4235356,41.7471,-87.5544,POINT (-87.5544 41.7471),170314603024,IL,Cook,Chicago,South Chicago,140437,2016,2.99,5.97,0.02642113690952762,0.06708268330733229
133,"7325 S Luella Ave , Chicago, IL 60649",1200,Apt,1.0,3.0,Yes,Check Availability,,http://chicagoha.gosection8.com/Section-8-housing-in-Chicago-IL/3-bedroom-1-bathroom-rental-Apt/4240747,41.7618,-87.5697,POINT (-87.5697 41.7618),170314308001,IL,Cook,Chicago,South Shore,269608,2016,0.96,2.87,-0.028191072826938137,0.038678485092667206
134,"8106 S Coles Ave , Chicago, IL 60617",1000,Apt,1.0,3.0,Yes,Check Availability,,http://chicagoha.gosection8.com/Section-8-housing-in-Chicago-IL/3-bedroom-1-bathroom-rental-Apt/4242043,41.748022,-87.549528,POINT (-87.549528 41.748022),170314601003,IL,Cook,Chicago,South Chicago,140437,2016,1.57,9.45,0.02642113690952762,0.06708268330733229
135,"8001 S Marshfield Ave , Chicago, IL 60620",735,Apt,1.0,1.0,Yes,Available Now,(312) 361-3145,http://chicagoha.gosection8.com/Section-8-housing-in-Chicago-IL/1-bedroom-1-bathroom-rental-Apt/4244305,41.7484,-87.6642,POINT (-87.66419999999999 41.7484),170317105001,IL,Cook,Chicago,Gresham,269571,2016,6.22,12.7,-0.0031007751937984496,0.09720062208398134
136,"7263 S Coles Ave , Chicago, IL 60649",930,Apt,1.0,2.0,Yes,Available Now,(312) 361-3145,http://chicagoha.gosection8.com/Section-8-housing-in-Chicago-IL/2-bedroom-1-bathroom-rental-Apt/4244350,41.7636,-87.5621,POINT (-87.5621 41.7636),170314307001,IL,Cook,Chicago,South Shore,269608,2016,1.93,4.9,-0.028191072826938137,0.038678485092667206
137,"5566 W Van Buren St 3, Chicago, IL 60644",1100,Apt,1.0,2.0,Yes,Check Availability,,http://chicagoha.gosection8.com/Section-8-housing-in-Chicago-IL/2-bedroom-1-bathroom-rental-Apt/4244920,41.8747375,-87.7642785,POINT (-87.7642785 41.8747375),170312521022,IL,Cook,Chicago,South Austin,403120,2016,3.57,9.42,-0.003479471120389701,0.05377094972067039
138,"11111 S Vernon Ave , Chicago, IL 60628",790,Apt,1.0,1.0,Yes,Available Now,(312) 361-3145,http://chicagoha.gosection8.com/Section-8-housing-in-Chicago-IL/1-bedroom-1-bathroom-rental-Apt/4249712,41.6923,-87.6121,POINT (-87.6121 41.6923),170314914001,IL,Cook,Chicago,Roseland,275251,2016,3.39,6.78,0.0048543689320388345,0.10305958132045089
139,"7625 S Yates Blvd Several, Chicago, IL 60649",1250,Apt,2.0,3.0,Yes,Check Availability,,http://chicagoha.gosection8.com/Section-8-housing-in-Chicago-IL/3-bedroom-2-bathroom-rental-Apt/4251059,41.756358,-87.565956,POINT (-87.565956 41.756358),170314313023,IL,Cook,Chicago,South Shore,269608,2016,5.43,12.56,-0.028191072826938137,0.038678485092667206
140,"2912 W Marquette Rd , Chicago, IL 60629",900,Apt,1.0,2.0,Yes,Check Availability,,http://chicagoha.gosection8.com/Section-8-housing-in-Chicago-IL/2-bedroom-1-bathroom-rental-Apt/4251086,41.772,-87.6962,POINT (-87.6962 41.772),170316608004,IL,Cook,Chicago,Marquette Park,403148,2016,2.87,4.78,0.029065200314218383,0.1
141,"9911 S Hoxie Ave , Chicago, IL 60617",1000,Apt,1.0,2.0,Yes,Available Now,(773) 961-4367,http://chicagoha.gosection8.com/Section-8-housing-in-Chicago-IL/2-bedroom-1-bathroom-rental-Apt/4256793,41.715,-87.5606,POINT (-87.56059999999999 41.715),170315102003,IL,Cook,Chicago,Hegewisch,138732,2016,0.98,3.92,0.03526448362720403,0.10218978102189781
142,"7827 S Marquette Ave , Chicago, IL 60649",1050,Apt,1.0,4.0,Yes,Available Now,(773) 961-4367,http://chicagoha.gosection8.com/Section-8-housing-in-Chicago-IL/4-bedroom-1-bathroom-rental-Apt/4256797,41.7529,-87.558,POINT (-87.55800000000001 41.7529),170314313011,IL,Cook,Chicago,South Shore,269608,2016,3.09,6.19,-0.028191072826938137,0.038678485092667206
143,"1956 E 73rd Pl Apt 2 , Chicago, IL 60649",1350,Apt,2.0,3.0,Yes,Check Availability,,http://chicagoha.gosection8.com/Section-8-housing-in-Chicago-IL/3-bedroom-2-bathroom-rental-Apt/4260904,41.7628,-87.577,POINT (-87.577 41.7628),170314305001,IL,Cook,Chicago,South Shore,269608,2016,3.63,6.47,-0.028191072826938137,0.038678485092667206
144,"11658 S Carpenter St , Chicago, IL 60643",1400,House,1.5,3.0,Yes,Check Availability,,http://chicagoha.gosection8.com/Section-8-housing-in-Chicago-IL/3-bedroom-1-full-bathroom-rental-House/4263171,41.6815,-87.6485,POINT (-87.6485 41.6815),170315303002,IL,Cook,Chicago,West Pullman,140913,2016,0.0,2.22,0.009828009828009828,0.12570965125709652
145,"5132 W Van Buren St 1, Chicago, IL 60644",1300,Apt,1.0,3.0,Yes,Check Availability,,http://chicagoha.gosection8.com/Section-8-housing-in-Chicago-IL/3-bedroom-1-bathroom-rental-Apt/4263530,41.875114,-87.7546519,POINT (-87.7546519 41.875114),170312522013,IL,Cook,Chicago,South Austin,403120,2016,2.03,6.5,-0.003479471120389701,0.05377094972067039
146,"11429 S Calumet Ave , Chicago, IL 60628",900,Apt,1.0,4.0,Yes,Check Availability,,http://chicagoha.gosection8.com/Section-8-housing-in-Chicago-IL/4-bedroom-1-bathroom-rental-Apt/4266807,41.686372,-87.614053,POINT (-87.614053 41.686372),170314914003,IL,Cook,Chicago,Roseland,275251,2016,1.14,4.92,0.0048543689320388345,0.10305958132045089
147,"7800 S Paulina St , Chicago, IL 60620",750,Apt,1.0,3.0,Yes,Check Availability,,http://chicagoha.gosection8.com/Section-8-housing-in-Chicago-IL/3-bedroom-1-bathroom-rental-Apt/4266815,41.751968,-87.666245,POINT (-87.666245 41.751968),170317104002,IL,Cook,Chicago,Gresham,269571,2016,2.21,7.35,-0.0031007751937984496,0.09720062208398134
148,"7255 S Constance Ave 3, Chicago, IL 60649",695,Apt,1.0,2.0,Yes,Check Availability,,http://chicagoha.gosection8.com/Section-8-housing-in-Chicago-IL/2-bedroom-1-bathroom-rental-Apt/4269461,41.7629523,-87.5804993,POINT (-87.5804993 41.7629523),170314305002,IL,Cook,Chicago,South Shore,269608,2016,4.77,9.91,-0.028191072826938137,0.038678485092667206
149,"10501 S Avenue  2, Chicago, IL 60617",1200,Apt,1.0,3.0,Yes,Check Availability,,http://chicagoha.gosection8.com/Section-8-housing-in-Chicago-IL/3-bedroom-1-bathroom-rental-Apt/4271580,41.7446979,-87.5491004,POINT (-87.5491004 41.7446979),170314601004,IL,Cook,Chicago,South Chicago,140437,2016,5.07,8.76,0.02642113690952762,0.06708268330733229
150,"142 E 114th Pl 2, Chicago, IL 60628",900,Apt,1.0,2.0,Yes,Check Availability,,http://chicagoha.gosection8.com/Section-8-housing-in-Chicago-IL/2-bedroom-1-bathroom-rental-Apt/4271988,41.686524,-87.619188,POINT (-87.61918799999999 41.686524),170314914002,IL,Cook,Chicago,Roseland,275251,2016,5.5,10.09,0.0048543689320388345,0.10305958132045089
151,"11634 S Princeton Ave 1, Chicago, IL 60628",1050,Apt,2.0,3.0,Yes,Check Availability,,http://chicagoha.gosection8.com/Section-8-housing-in-Chicago-IL/3-bedroom-2-bathroom-rental-Apt/4272173,41.682366,-87.6301749,POINT (-87.6301749 41.682366),170315302005,IL,Cook,Chicago,West Pullman,140913,2016,2.75,7.69,0.009828009828009828,0.12570965125709652
152,"11845 S Union Ave 1, Chicago, IL 60628",900,Apt,1.0,3.0,Yes,Check Availability,,http://chicagoha.gosection8.com/Section-8-housing-in-Chicago-IL/3-bedroom-1-bathroom-rental-Apt/4272359,41.6783618,-87.6390746,POINT (-87.6390746 41.6783618),170315302003,IL,Cook,Chicago,West Pullman,140913,2016,2.06,5.15,0.009828009828009828,0.12570965125709652
153,"1446 S Harding Ave 1, Chicago, IL 60623",850,Apt,1.0,3.0,Yes,Check Availability,,http://chicagoha.gosection8.com/Section-8-housing-in-Chicago-IL/3-bedroom-1-bathroom-rental-Apt/4272363,41.861127,-87.724129,POINT (-87.724129 41.861127),170318387002,IL,Cook,Chicago,Archer Heights,269568,2016,3.44,9.92,-0.015256588072122053,0.06267605633802817
154,"7014 S Calumet Ave , Chicago, IL 60637",900,Apt,1.0,2.0,Yes,Available Now,(773) 961-4367,http://chicagoha.gosection8.com/Section-8-housing-in-Chicago-IL/2-bedroom-1-bathroom-rental-Apt/4272726,41.767,-87.6174,POINT (-87.6174 41.767),170316904002,IL,Cook,Chicago,Park Manor,403356,2016,2.56,6.07,-0.023148148148148147,0.06398104265402843
155,"850 N Hamlin Ave , Chicago, IL 60651",900,Apt,1.0,2.0,Yes,Available Now,(773) 961-4367,http://chicagoha.gosection8.com/Section-8-housing-in-Chicago-IL/2-bedroom-1-bathroom-rental-Apt/4272735,41.8969,-87.7216,POINT (-87.7216 41.8969),170312312003,IL,Cook,Chicago,Humboldt Park,269585,2016,2.78,7.54,0.05357142857142857,0.031387319522912745
156,"7442 S Eberhart Ave , Chicago, IL 60619",900,Apt,1.0,2.0,Yes,Available Now,(773) 961-4367,http://chicagoha.gosection8.com/Section-8-housing-in-Chicago-IL/2-bedroom-1-bathroom-rental-Apt/4273137,41.759,-87.613,POINT (-87.613 41.759),170316909005,IL,Cook,Chicago,Park Manor,403356,2016,2.76,5.75,-0.023148148148148147,0.06398104265402843
157,"1445 W 72nd St , Chicago, IL 60636",1400,House,1.0,4.0,Yes,Available Now,(773) 961-4367,http://chicagoha.gosection8.com/Section-8-housing-in-Chicago-IL/4-bedroom-1-bathroom-rental-House/4273531,41.7629,-87.6607,POINT (-87.66070000000001 41.7629),170316719001,IL,Cook,Chicago,Englewood,138261,2016,0.0,8.16,-0.018268467037331215,0.0744336569579288
158,"6637 S Greenwood Ave , Chicago, IL 60637",900,Apt,1.0,2.0,Yes,Available Now,(773) 961-4367,http://chicagoha.gosection8.com/Section-8-housing-in-Chicago-IL/2-bedroom-1-bathroom-rental-Apt/4274104,41.773893,-87.599352,POINT (-87.599352 41.773893),170318344003,IL,Cook,Chicago,Woodlawn,276138,2016,2.69,4.93,-0.02700781805259417,0.02410518626734843
159,"646 E 62nd St  2, Chicago, IL 60637",997,Apt,1.0,2.0,Yes,Check Availability,,http://chicagoha.gosection8.com/Section-8-housing-in-Chicago-IL/2-bedroom-1-bathroom-rental-Apt/4274287,41.7823,-87.609,POINT (-87.60899999999999 41.7823),170314205001,IL,Cook,Chicago,West Woodlawn,403353,2016,0.7,2.63,-0.04661654135338346,0.026813880126182965
160,"7628 S Sangamon St , Chicago, IL 60620",1400,Apt,2.0,5.0,Yes,Available Now,(312) 296-7312,http://chicagoha.gosection8.com/Section-8-housing-in-Chicago-IL/5-bedroom-2-bathroom-rental-Apt/4274670,41.7551,-87.6481,POINT (-87.6481 41.7551),170317102002,IL,Cook,Chicago,Gresham,269571,2016,4.0,8.0,-0.0031007751937984496,0.09720062208398134
161,"423 N Lawndale Ave , Chicago, IL 60624",900,Apt,1.0,2.0,Yes,Available Now,(773) 961-4367,http://chicagoha.gosection8.com/Section-8-housing-in-Chicago-IL/2-bedroom-1-bathroom-rental-Apt/4275075,41.8888,-87.7182,POINT (-87.7182 41.8888),170312315003,IL,Cook,Chicago,East Garfield Park,269577,2016,3.77,7.55,-0.012162162162162163,0.03419972640218878
162,"4557 S Wabash Ave , Chicago, IL 60653",1200,Apt,1.0,3.0,Yes,Available Now,(773) 961-4367,http://chicagoha.gosection8.com/Section-8-housing-in-Chicago-IL/3-bedroom-1-bathroom-rental-Apt/4275079,41.8114,-87.6241,POINT (-87.6241 41.8114),170313807001,IL,Cook,Chicago,Bronzeville,403145,2016,0.91,3.41,0.0026827632461435278,0.030100334448160536
163,"10118 S May St , Chicago, IL 60643",1600,House,2.0,5.0,Yes,Available Now,(773) 961-4367,http://chicagoha.gosection8.com/Section-8-housing-in-Chicago-IL/5-bedroom-2-bathroom-rental-House/4275084,41.7098,-87.6518,POINT (-87.65179999999999 41.7098),170317306002,IL,Cook,Chicago,Washington Heights,269610,2016,0.7,1.4,0.012749003984063745,0.12981904012588513
164,"6526 S Drexel Ave , Chicago, IL 60637",1000,Apt,1.0,3.0,Yes,Available Now,(773) 961-4367,http://chicagoha.gosection8.com/Section-8-housing-in-Chicago-IL/3-bedroom-1-bathroom-rental-Apt/4276320,41.776,-87.6037,POINT (-87.6037 41.776),170314208002,IL,Cook,Chicago,Woodlawn,276138,2016,3.46,8.07,-0.02700781805259417,0.02410518626734843
165,"10655 S May St 1, Chicago, IL 60643",1300,Apt,1.0,3.0,Yes,Check Availability,,http://chicagoha.gosection8.com/Section-8-housing-in-Chicago-IL/3-bedroom-1-bathroom-rental-Apt/4277228,41.699732,-87.650253,POINT (-87.65025300000001 41.699732),170317307002,IL,Cook,Chicago,Washington Heights,269610,2016,1.95,5.84,0.012749003984063745,0.12981904012588513
166,"4815 W Quincy St 2, Chicago, IL 60644",850,Apt,1.0,3.0,Yes,Check Availability,,http://chicagoha.gosection8.com/Section-8-housing-in-Chicago-IL/3-bedroom-1-bathroom-rental-Apt/4280126,41.877428,-87.745855,POINT (-87.74585500000001 41.877428),170312522022,IL,Cook,Chicago,South Austin,403120,2016,3.36,7.05,-0.003479471120389701,0.05377094972067039
167,"7341 S Emerald Ave , Chicago, IL 60621",1150,Apt,1.0,4.0,Yes,Available Now,(312) 296-7312,http://chicagoha.gosection8.com/Section-8-housing-in-Chicago-IL/4-bedroom-1-bathroom-rental-Apt/4280518,41.7604,-87.6427,POINT (-87.6427 41.7604),170316813003,IL,Cook,Chicago,Englewood,138261,2016,2.97,6.44,-0.018268467037331215,0.0744336569579288
168,"6555 S Talman Ave 1, Chicago, IL 60629",1100,Apt,1.0,3.0,Yes,Available Now,(312) 296-7312,http://chicagoha.gosection8.com/Section-8-housing-in-Chicago-IL/3-bedroom-1-bathroom-rental-Apt/4280535,41.774,-87.6892,POINT (-87.6892 41.774),170316608002,IL,Cook,Chicago,Marquette Park,403148,2016,2.24,2.69,0.029065200314218383,0.1
169,"6716 S Clyde Ave 2s, Chicago, IL 60649",1200,Apt,1.0,3.0,Yes,Available Now,(773) 961-4367,http://chicagoha.gosection8.com/Section-8-housing-in-Chicago-IL/3-bedroom-1-bathroom-rental-Apt/4281004,41.772864,-87.57438,POINT (-87.57438 41.772864),170314301014,IL,Cook,Chicago,South Shore,269608,2016,4.05,10.93,-0.028191072826938137,0.038678485092667206
170,"10538 S Avenue L  , Chicago, IL 60617",1300,Apt,1.0,3.0,Yes,Check Availability,,http://chicagoha.gosection8.com/Section-8-housing-in-Chicago-IL/3-bedroom-1-bathroom-rental-Apt/4281353,41.7034,-87.5368,POINT (-87.5368 41.7034),170315203002,IL,Cook,Chicago,East Side,138166,2016,0.91,2.28,0.04523026315789474,0.10700236034618411
171,"2743 W Jackson Blvd , Chicago, IL 60612",1200,Duplex,1.0,3.0,Yes,Available Now,(773) 961-4367,http://chicagoha.gosection8.com/Section-8-housing-in-Chicago-IL/3-bedroom-1-bathroom-rental-Duplex/4281665,41.8772,-87.6954,POINT (-87.69540000000001 41.8772),170318374001,IL,Cook,Chicago,Near West Side,269599,2016,0.69,3.82,0.17073170731707318,-0.0015625
172,"7352 S Yale Ave 1, Chicago, IL 60621",1200,Apt,1.0,3.0,Yes,Available Now,(773) 961-4367,http://chicagoha.gosection8.com/Section-8-housing-in-Chicago-IL/3-bedroom-1-bathroom-rental-Apt/4282668,41.760207,-87.63122,POINT (-87.63122 41.760207),170316911002,IL,Cook,Chicago,Englewood,138261,2016,3.11,6.22,-0.018268467037331215,0.0744336569579288
173,"9335 S South Chicago Ave , Chicago, IL 60617",1200,Apt,1.0,3.0,Yes,Available Now,(773) 317-3767,http://chicagoha.gosection8.com/Section-8-housing-in-Chicago-IL/3-bedroom-1-bathroom-rental-Apt/4283022,41.726,-87.5496,POINT (-87.5496 41.726),170314610001,IL,Cook,Chicago,South Chicago,140437,2016,2.66,3.85,0.02642113690952762,0.06708268330733229
174,"5317 W Ferdinand St 1st Fl, Chicago, IL 60644",1200,Apt,1.0,3.0,Yes,Check Availability,,http://chicagoha.gosection8.com/Section-8-housing-in-Chicago-IL/3-bedroom-1-bathroom-rental-Apt/4283724,41.888611,-87.758593,POINT (-87.758593 41.888611),170312515002,IL,Cook,Chicago,South Austin,403120,2016,0.0,0.69,-0.003479471120389701,0.05377094972067039
175,"5317 W Ferdinand St 2, Chicago, IL 60644",1400,Apt,1.0,4.0,Yes,Check Availability,,http://chicagoha.gosection8.com/Section-8-housing-in-Chicago-IL/4-bedroom-1-bathroom-rental-Apt/4283730,41.888611,-87.758593,POINT (-87.758593 41.888611),170312515002,IL,Cook,Chicago,South Austin,403120,2016,0.0,0.69,-0.003479471120389701,0.05377094972067039
176,"6530 S Greenwood Ave 2, Chicago, IL 60637",950,Apt,1.0,2.0,Yes,Check Availability,,http://chicagoha.gosection8.com/Section-8-housing-in-Chicago-IL/2-bedroom-1-bathroom-rental-Apt/4284069,41.7759289,-87.5997532,POINT (-87.59975319999999 41.7759289),170318344003,IL,Cook,Chicago,Woodlawn,276138,2016,2.69,4.93,-0.02700781805259417,0.02410518626734843
177,"7011 S Throop St , Chicago, IL 60636",1300,House,2.0,4.0,Yes,Available Now,(773) 961-4367,http://chicagoha.gosection8.com/Section-8-housing-in-Chicago-IL/4-bedroom-2-bathroom-rental-House/4285561,41.7664,-87.6562,POINT (-87.6562 41.7664),170318349001,IL,Cook,Chicago,Englewood,138261,2016,2.48,9.92,-0.018268467037331215,0.0744336569579288
178,"742 S California Ave , Chicago, IL 60612",1200,Apt,2.0,3.0,Yes,Available Now,(773) 961-4367,http://chicagoha.gosection8.com/Section-8-housing-in-Chicago-IL/3-bedroom-2-bathroom-rental-Apt/4285629,41.8716,-87.6963,POINT (-87.69629999999999 41.8716),170312718001,IL,Cook,Chicago,Archer Heights,269568,2016,0.93,6.51,-0.015256588072122053,0.06267605633802817
179,"7011 S Throop St , Chicago, IL 60636",1200,Apt,2.0,4.0,Yes,Available Now,(773) 961-4367,http://chicagoha.gosection8.com/Section-8-housing-in-Chicago-IL/4-bedroom-2-bathroom-rental-Apt/4285631,41.7664,-87.6562,POINT (-87.6562 41.7664),170318349001,IL,Cook,Chicago,Englewood,138261,2016,2.48,9.92,-0.018268467037331215,0.0744336569579288
180,"2520 W 70th St , Chicago, IL 60629",750,Apt,1.0,2.0,Yes,Check Availability,,http://chicagoha.gosection8.com/Section-8-housing-in-Chicago-IL/2-bedroom-1-bathroom-rental-Apt/4286983,41.7666,-87.6866,POINT (-87.6866 41.7666),170316609002,IL,Cook,Chicago,Lithuanian Plaza,403339,2016,1.82,4.55,,
181,"6158 S Langley Ave 2, Chicago, IL 60637",1090,Apt,1.0,3.0,Yes,Check Availability,,http://chicagoha.gosection8.com/Section-8-housing-in-Chicago-IL/3-bedroom-1-bathroom-rental-Apt/4287385,41.7824,-87.6088,POINT (-87.6088 41.7824),170314205001,IL,Cook,Chicago,West Woodlawn,403353,2016,0.7,2.63,-0.04661654135338346,0.026813880126182965
182,"7738 S Lowe Ave , Chicago, IL 60620",1400,House,2.0,4.0,Yes,Available Now,(773) 961-4367,http://chicagoha.gosection8.com/Section-8-housing-in-Chicago-IL/4-bedroom-2-bathroom-rental-House/4289086,41.7532,-87.6408,POINT (-87.6408 41.7532),170317101001,IL,Cook,Chicago,Gresham,269571,2016,1.58,6.79,-0.0031007751937984496,0.09720062208398134
183,"11223 S Vernon Ave , Chicago, IL 60628",1400,House,1.0,4.0,Yes,Available Now,(773) 961-4367,http://chicagoha.gosection8.com/Section-8-housing-in-Chicago-IL/4-bedroom-1-bathroom-rental-House/4289090,41.6902,-87.6118,POINT (-87.6118 41.6902),170314914001,IL,Cook,Chicago,Roseland,275251,2016,3.39,6.78,0.0048543689320388345,0.10305958132045089
184,"8200 S Saginaw Ave , Chicago, IL 60617",1400,House,1.0,4.0,Yes,Available Now,(773) 961-4367,http://chicagoha.gosection8.com/Section-8-housing-in-Chicago-IL/4-bedroom-1-bathroom-rental-House/4289094,41.7462,-87.5604,POINT (-87.5604 41.7462),170314603024,IL,Cook,Chicago,South Chicago,140437,2016,2.99,5.97,0.02642113690952762,0.06708268330733229
185,"423 N Lawndale Ave 1, Chicago, IL 60624",900,Apt,1.0,2.0,Yes,Available Now,(773) 961-4367,http://chicagoha.gosection8.com/Section-8-housing-in-Chicago-IL/2-bedroom-1-bathroom-rental-Apt/4289099,41.888821,-87.718198,POINT (-87.718198 41.888821),170312315003,IL,Cook,Chicago,East Garfield Park,269577,2016,3.77,7.55,-0.012162162162162163,0.03419972640218878
186,"4557 S Wabash Ave 2, Chicago, IL 60653",1200,Apt,1.0,3.0,Yes,Available Now,(773) 961-4367,http://chicagoha.gosection8.com/Section-8-housing-in-Chicago-IL/3-bedroom-1-bathroom-rental-Apt/4289100,41.8114,-87.6241,POINT (-87.6241 41.8114),170313807001,IL,Cook,Chicago,Bronzeville,403145,2016,0.91,3.41,0.0026827632461435278,0.030100334448160536
187,"3050 E 91st St , Chicago, IL 60617",700,Apt,1.0,2.0,Yes,Check Availability,,http://chicagoha.gosection8.com/Section-8-housing-in-Chicago-IL/2-bedroom-1-bathroom-rental-Apt/4289388,41.7304,-87.5492,POINT (-87.5492 41.7304),170318339002,IL,Cook,Chicago,South Chicago,140437,2016,3.5,7.78,0.02642113690952762,0.06708268330733229
188,"350 E 71st St  , Chicago, IL 60619",750,Apt,1.0,2.0,Yes,Available Now,(312) 569-0470,http://chicagoha.gosection8.com/Section-8-housing-in-Chicago-IL/2-bedroom-1-bathroom-rental-Apt/4289891,41.7658,-87.6162,POINT (-87.61620000000001 41.7658),170316904002,IL,Cook,Chicago,Park Manor,403356,2016,2.56,6.07,-0.023148148148148147,0.06398104265402843
189,"6350 S Langley Ave 2, Chicago, IL 60637",1100,Apt,1.0,3.0,Yes,Check Availability,,http://chicagoha.gosection8.com/Section-8-housing-in-Chicago-IL/3-bedroom-1-bathroom-rental-Apt/4290602,41.7789,-87.6087,POINT (-87.6087 41.7789),170314207001,IL,Cook,Chicago,West Woodlawn,403353,2016,3.41,6.83,-0.04661654135338346,0.026813880126182965
190,"1629 S Hamlin Ave , Chicago, IL 60623",1000,Apt,1.0,3.0,Yes,Available Now,(312) 296-7312,http://chicagoha.gosection8.com/Section-8-housing-in-Chicago-IL/3-bedroom-1-bathroom-rental-Apt/4291462,41.858,-87.7197,POINT (-87.7197 41.858),170312922003,IL,Cook,Chicago,Archer Heights,269568,2016,1.03,4.64,-0.015256588072122053,0.06267605633802817
191,"7350 S Yale Ave , Chicago, IL 60621",1300,Apt,1.0,3.0,Yes,Available Now,(773) 961-4367,http://chicagoha.gosection8.com/Section-8-housing-in-Chicago-IL/3-bedroom-1-bathroom-rental-Apt/4291603,41.7603,-87.6312,POINT (-87.63120000000001 41.7603),170316911002,IL,Cook,Chicago,Englewood,138261,2016,3.11,6.22,-0.018268467037331215,0.0744336569579288
192,"8028 S Ellis Ave 2, Chicago, IL 60619",975,Apt,2.0,3.0,Yes,Check Availability,,http://chicagoha.gosection8.com/Section-8-housing-in-Chicago-IL/3-bedroom-2-bathroom-rental-Apt/4291679,41.7487,-87.6006,POINT (-87.6006 41.7487),170314401011,IL,Cook,Chicago,East Chatham,403360,2016,5.31,11.86,-0.04291497975708502,0.05499153976311337
193,"7810 S Constance Ave , Chicago, IL 60649",800,Apt,3.0,2.0,Yes,Check Availability,,http://chicagoha.gosection8.com/Section-8-housing-in-Chicago-IL/2-bedroom-3-bathroom-rental-Apt/4292674,41.752983,-87.580026,POINT (-87.580026 41.752983),170318342001,IL,Cook,Chicago,South Shore,269608,2016,2.84,7.82,-0.028191072826938137,0.038678485092667206
194,"7700 S Saint Lawrence Ave 1, Chicago, IL 60619",1200,Duplex,2.0,4.0,Yes,Available Now,(773) 961-4367,http://chicagoha.gosection8.com/Section-8-housing-in-Chicago-IL/4-bedroom-2-bathroom-rental-Duplex/4294785,41.7547,-87.6105,POINT (-87.6105 41.7547),170316914003,IL,Cook,Chicago,Chatham,273222,2016,3.3,4.4,-0.003000750187546887,0.08653122648607976
195,"10401 S Avenue M 2, Chicago, IL 60617",1200,Apt,1.0,3.0,Yes,Check Availability,,http://chicagoha.gosection8.com/Section-8-housing-in-Chicago-IL/3-bedroom-1-bathroom-rental-Apt/4296337,41.7062594,-87.537374,POINT (-87.537374 41.7062594),170315203001,IL,Cook,Chicago,East Side,138166,2016,0.5,0.99,0.04523026315789474,0.10700236034618411
196,"6319 S Ellis Ave 2, Chicago, IL 60637",1000,Apt,1.0,3.0,Yes,Check Availability,,http://chicagoha.gosection8.com/Section-8-housing-in-Chicago-IL/3-bedroom-1-bathroom-rental-Apt/4296404,41.7798106,-87.6004269,POINT (-87.6004269 41.7798106),170318344001,IL,Cook,Chicago,Woodlawn,276138,2016,0.69,1.74,-0.02700781805259417,0.02410518626734843
197,"11588 S State St , Chicago, IL 60628",1250,Apt,1.0,3.0,Yes,Check Availability,,http://chicagoha.gosection8.com/Section-8-housing-in-Chicago-IL/3-bedroom-1-bathroom-rental-Apt/4296542,41.6827958,-87.6230658,POINT (-87.62306580000001 41.6827958),170315302001,IL,Cook,Chicago,West Pullman,140913,2016,1.96,11.11,0.009828009828009828,0.12570965125709652
198,"10401 S Avenue M 1, Chicago, IL 60617",1300,Apt,1.0,4.0,Yes,Check Availability,,http://chicagoha.gosection8.com/Section-8-housing-in-Chicago-IL/4-bedroom-1-bathroom-rental-Apt/4297072,41.7062594,-87.537374,POINT (-87.537374 41.7062594),170315203001,IL,Cook,Chicago,East Side,138166,2016,0.5,0.99,0.04523026315789474,0.10700236034618411
199,"9626 S Ewing Ave 2, Chicago, IL 60617",1050,Apt,1.0,4.0,Yes,Check Availability,,http://chicagoha.gosection8.com/Section-8-housing-in-Chicago-IL/4-bedroom-1-bathroom-rental-Apt/4300237,41.720487,-87.535657,POINT (-87.535657 41.720487),170315202001,IL,Cook,Chicago,East Side,138166,2016,1.41,6.1,0.04523026315789474,0.10700236034618411
200,"9231 S Ellis Ave , Chicago, IL 60619",1400,House,2.0,4.0,Yes,Available Now,(773) 961-4367,http://chicagoha.gosection8.com/Section-8-housing-in-Chicago-IL/4-bedroom-2-bathroom-rental-House/4302194,41.7267,-87.5994,POINT (-87.5994 41.7267),170314701001,IL,Cook,Chicago,Burnside,137634,2016,1.57,10.99,0.01499605367008682,0.09720062208398134
201,"5817 S Wabash Ave 2, Chicago, IL 60637",1100,Apt,1.0,3.0,Yes,Available Now,(773) 961-4367,http://chicagoha.gosection8.com/Section-8-housing-in-Chicago-IL/3-bedroom-1-bathroom-rental-Apt/4302198,41.7887,-87.6234,POINT (-87.6234 41.7887),170314005002,IL,Cook,Chicago,Washington Park,275927,2016,3.63,8.16,-0.03381294964028777,0.0387192851824274
202,"819 N Laramie Ave 2, Chicago, IL 60651",1000,Apt,1.0,2.0,Yes,Available Now,(773) 961-4367,http://chicagoha.gosection8.com/Section-8-housing-in-Chicago-IL/2-bedroom-1-bathroom-rental-Apt/4302203,41.8953,-87.7556,POINT (-87.7556 41.8953),170312511003,IL,Cook,Chicago,South Austin,403120,2016,1.48,3.94,-0.003479471120389701,0.05377094972067039
203,"218 E 79th St 2, Chicago, IL 60619",1300,Apt,1.5,4.0,Yes,Check Availability,,http://chicagoha.gosection8.com/Section-8-housing-in-Chicago-IL/4-bedroom-1-full-bathroom-rental-Apt/4302747,41.751146,-87.6188885,POINT (-87.6188885 41.751146),170316913002,IL,Cook,Chicago,Chatham,273222,2016,0.75,3.77,-0.003000750187546887,0.08653122648607976
204,"6448 S Peoria St 1, Chicago, IL 60621",900,Apt,1.0,2.0,Yes,Check Availability,,http://chicagoha.gosection8.com/Section-8-housing-in-Chicago-IL/2-bedroom-1-bathroom-rental-Apt/4302965,41.7764,-87.6471,POINT (-87.64709999999999 41.7764),170316810004,IL,Cook,Chicago,Englewood,138261,2016,2.82,9.09,-0.018268467037331215,0.0744336569579288
205,"5601 W Le Moyne St , Chicago, IL 60651",1150,Apt,1.0,2.0,Yes,Check Availability,,http://chicagoha.gosection8.com/Section-8-housing-in-Chicago-IL/2-bedroom-1-bathroom-rental-Apt/4303251,41.9074,-87.7662,POINT (-87.7662 41.9074),170312506001,IL,Cook,Chicago,North Austin,403323,2016,4.44,5.56,0.01722900215362527,0.1213832039520113
206,"19 E 102nd St , Chicago, IL 60628",1450,House,1.5,5.0,Yes,Available Now,(773) 961-4367,http://chicagoha.gosection8.com/Section-8-housing-in-Chicago-IL/5-bedroom-1-full-bathroom-rental-House/4303601,41.7087,-87.6229,POINT (-87.6229 41.7087),170314908005,IL,Cook,Chicago,Roseland,275251,2016,0.0,3.13,0.0048543689320388345,0.10305958132045089
207,"7125 S Woodlawn Ave 2, Chicago, IL 60619",1050,Apt,1.0,2.0,Yes,Available Now,(773) 961-4367,http://chicagoha.gosection8.com/Section-8-housing-in-Chicago-IL/2-bedroom-1-bathroom-rental-Apt/4303606,41.765209,-87.595456,POINT (-87.595456 41.765209),170318418002,IL,Cook,Chicago,Grand Crossing,276349,2016,2.34,6.23,-0.02107728337236534,0.058213716108452954
208,"8015 S Stewart Ave , Chicago, IL 60620",1350,House,1.0,5.0,Yes,Available Now,(773) 961-4367,http://chicagoha.gosection8.com/Section-8-housing-in-Chicago-IL/5-bedroom-1-bathroom-rental-House/4303610,41.7484,-87.6339,POINT (-87.6339 41.7484),170318424002,IL,Cook,Chicago,West Chatham,403357,2016,0.0,5.07,0.022187004754358162,0.10542635658914729
209,"715 W 54th St 2, Chicago, IL 60609",1000,Apt,1.0,3.0,Yes,Check Availability,,http://chicagoha.gosection8.com/Section-8-housing-in-Chicago-IL/3-bedroom-1-bathroom-rental-Apt/4303697,41.795898,-87.643446,POINT (-87.643446 41.795898),170318438002,IL,Cook,Chicago,Back of the Yards,403146,2016,0.61,6.67,0.0,0.08339828526890102
210,"8023 S Paulina St 1, Chicago, IL 60620",1050,Apt,1.0,3.0,Yes,Check Availability,,http://chicagoha.gosection8.com/Section-8-housing-in-Chicago-IL/3-bedroom-1-bathroom-rental-Apt/4303830,41.7478,-87.6655,POINT (-87.66549999999999 41.7478),170317105001,IL,Cook,Chicago,Gresham,269571,2016,6.22,12.7,-0.0031007751937984496,0.09720062208398134
211,"8807 S Colfax Ave 2, Chicago, IL 60617",1100,Apt,1.0,2.0,Yes,Check Availability,,http://chicagoha.gosection8.com/Section-8-housing-in-Chicago-IL/2-bedroom-1-bathroom-rental-Apt/4304102,41.7352,-87.5608,POINT (-87.5608 41.7352),170314606001,IL,Cook,Chicago,South Chicago,140437,2016,3.17,5.88,0.02642113690952762,0.06708268330733229
212,"6128 S Prairie Ave 2n, Chicago, IL 60637",950,Apt,1.0,2.0,Yes,Check Availability,,http://chicagoha.gosection8.com/Section-8-housing-in-Chicago-IL/2-bedroom-1-bathroom-rental-Apt/4305209,41.782936,-87.619384,POINT (-87.619384 41.782936),170314008001,IL,Cook,Chicago,Washington Park,275927,2016,6.46,16.85,-0.03381294964028777,0.0387192851824274
213,"7148 S Francisco Ave 2, Chicago, IL 60629",1150,Apt,1.0,3.0,Yes,Check Availability,,http://chicagoha.gosection8.com/Section-8-housing-in-Chicago-IL/3-bedroom-1-bathroom-rental-Apt/4305410,41.763067,-87.695779,POINT (-87.695779 41.763067),170316611001,IL,Cook,Chicago,Marquette Park,403148,2016,0.42,3.33,0.029065200314218383,0.1
214,"923 W Garfield Blvd 1f, Chicago, IL 60621",730,Apt,1.0,1.0,Yes,Check Availability,,http://chicagoha.gosection8.com/Section-8-housing-in-Chicago-IL/1-bedroom-1-bathroom-rental-Apt/4305958,41.7936,-87.6485019,POINT (-87.6485019 41.7936),170318347002,IL,Cook,Chicago,Englewood,138261,2016,4.14,14.79,-0.018268467037331215,0.0744336569579288
215,"6820 S Cornell Ave 1n, Chicago, IL 60649",1100,Apt,1.0,3.0,Yes,Check Availability,,http://chicagoha.gosection8.com/Section-8-housing-in-Chicago-IL/3-bedroom-1-bathroom-rental-Apt/4311080,41.770808,-87.58535,POINT (-87.58535000000001 41.770808),170314302005,IL,Cook,Chicago,South Shore,269608,2016,1.33,2.92,-0.028191072826938137,0.038678485092667206
216,"714 W Marquette Rd , Chicago, IL 60621",1200,Apt,1.0,4.0,Yes,Check Availability,,http://chicagoha.gosection8.com/Section-8-housing-in-Chicago-IL/4-bedroom-1-bathroom-rental-Apt/4312358,41.772751,-87.643356,POINT (-87.643356 41.772751),170316809001,IL,Cook,Chicago,Englewood,138261,2016,4.64,8.51,-0.018268467037331215,0.0744336569579288
217,"10240 S Eberhart Ave 1 And 2, Chicago, IL 60628",1100,Apt,1.0,3.0,Yes,Check Availability,,http://chicagoha.gosection8.com/Section-8-housing-in-Chicago-IL/3-bedroom-1-bathroom-rental-Apt/4315393,41.70794,-87.611693,POINT (-87.611693 41.70794),170314908002,IL,Cook,Chicago,Rosemoor,403379,2016,0.94,0.94,0.011627906976744186,0.10727969348659004
218,"3538 W Grenshaw St 2, Chicago, IL 60624",900,Apt,1.0,2.0,Yes,Available Now,(773) 961-4367,http://chicagoha.gosection8.com/Section-8-housing-in-Chicago-IL/2-bedroom-1-bathroom-rental-Apt/4315495,41.8675,-87.7145,POINT (-87.7145 41.8675),170318430001,IL,Cook,Chicago,Homan Square,403327,2016,2.29,9.4,,
219,"4421 W Adams St , Chicago, IL 60624",750,Apt,1.0,2.0,Yes,Check Availability,,http://chicagoha.gosection8.com/Section-8-housing-in-Chicago-IL/2-bedroom-1-bathroom-rental-Apt/4317345,41.877584,-87.736255,POINT (-87.736255 41.877584),170312605001,IL,Cook,Chicago,West Garfield Park,269613,2016,2.45,5.88,-0.03136136849607983,0.046357615894039736
220,"624 N Monticello Ave 2, Chicago, IL 60624",1250,Apt,1.0,3.0,Yes,Check Availability,,http://chicagoha.gosection8.com/Section-8-housing-in-Chicago-IL/3-bedroom-1-bathroom-rental-Apt/4317662,41.892604,-87.717793,POINT (-87.717793 41.892604),170312315004,IL,Cook,Chicago,East Garfield Park,269577,2016,0.74,2.22,-0.012162162162162163,0.03419972640218878
221,"2516 W 70th St 8, Chicago, IL 60629",750,Apt,1.0,2.0,Yes,Check Availability,,http://chicagoha.gosection8.com/Section-8-housing-in-Chicago-IL/2-bedroom-1-bathroom-rental-Apt/4318243,41.7665,-87.6864,POINT (-87.68640000000001 41.7665),170316609002,IL,Cook,Chicago,Lithuanian Plaza,403339,2016,1.82,4.55,,
222,"5744 S Emerald Ave 1r, Chicago, IL 60621",900,Apt,1.0,2.0,Yes,Available Now,(773) 961-4367,http://chicagoha.gosection8.com/Section-8-housing-in-Chicago-IL/2-bedroom-1-bathroom-rental-Apt/4318394,41.7893,-87.6442,POINT (-87.6442 41.7893),170318347003,IL,Cook,Chicago,Englewood,138261,2016,3.57,9.52,-0.018268467037331215,0.0744336569579288
223,"7946 S Ellis Ave 1, Chicago, IL 60619",950,Apt,1.0,1.0,Yes,Available Now,(773) 961-4367,http://chicagoha.gosection8.com/Section-8-housing-in-Chicago-IL/1-bedroom-1-bathroom-rental-Apt/4318406,41.7499,-87.6006,POINT (-87.6006 41.7499),170314401011,IL,Cook,Chicago,East Chatham,403360,2016,5.31,11.86,-0.04291497975708502,0.05499153976311337
224,"9150 S Ellis Ave 1, Chicago, IL 60619",1000,Apt,1.0,2.0,Yes,Available Now,(773) 961-4367,http://chicagoha.gosection8.com/Section-8-housing-in-Chicago-IL/2-bedroom-1-bathroom-rental-Apt/4318415,41.72792,-87.600117,POINT (-87.600117 41.72792),170314701001,IL,Cook,Chicago,Burnside,137634,2016,1.57,10.99,0.01499605367008682,0.09720062208398134
225,"7136 S East End Ave 2s, Chicago, IL 60649",1100,Apt,1.0,3.0,Yes,Available Now,(773) 961-4367,http://chicagoha.gosection8.com/Section-8-housing-in-Chicago-IL/3-bedroom-1-bathroom-rental-Apt/4318420,41.7649399,-87.5839979,POINT (-87.5839979 41.7649399),170314305003,IL,Cook,Chicago,South Shore,269608,2016,4.6,9.2,-0.028191072826938137,0.038678485092667206
226,"7831 S Colfax 1, Chicago, IL 60619",1000,Apt,1.0,3.0,Yes,Available Now,(773) 961-4367,http://chicagoha.gosection8.com/Section-8-housing-in-Chicago-IL/3-bedroom-1-bathroom-rental-Apt/4318429,41.7526,-87.561,POINT (-87.56100000000001 41.7526),170314313013,IL,Cook,Chicago,South Shore,269608,2016,6.81,17.54,-0.028191072826938137,0.038678485092667206
227,"8346 S Colfax Ave 2, Chicago, IL 60617",950,Apt,1.0,3.0,Yes,Available Now,(773) 961-4367,http://chicagoha.gosection8.com/Section-8-housing-in-Chicago-IL/3-bedroom-1-bathroom-rental-Apt/4318434,41.7432,-87.5616,POINT (-87.5616 41.7432),170314604003,IL,Cook,Chicago,South Chicago,140437,2016,0.0,0.0,0.02642113690952762,0.06708268330733229
228,"8147 S Saginaw Ave , Chicago, IL 60617",1350,House,2.5,4.0,Yes,Available Now,(773) 961-4367,http://chicagoha.gosection8.com/Section-8-housing-in-Chicago-IL/4-bedroom-2-full-bathroom-rental-House/4318437,41.7468,-87.5597,POINT (-87.55970000000001 41.7468),170314603024,IL,Cook,Chicago,South Chicago,140437,2016,2.99,5.97,0.02642113690952762,0.06708268330733229
229,"6716 S Clyde Ave 2n, Chicago, IL 60649",1100,Apt,1.0,3.0,Yes,Available Now,(773) 961-4367,http://chicagoha.gosection8.com/Section-8-housing-in-Chicago-IL/3-bedroom-1-bathroom-rental-Apt/4318441,41.7729,-87.5744,POINT (-87.5744 41.7729),170314301014,IL,Cook,Chicago,South Shore,269608,2016,4.05,10.93,-0.028191072826938137,0.038678485092667206
230,"7918 S Greenwood Ave 123, Chicago, IL 60619",1200,House,2.0,3.0,Yes,Available Now,(773) 961-4367,http://chicagoha.gosection8.com/Section-8-housing-in-Chicago-IL/3-bedroom-2-bathroom-rental-House/4318449,41.7509,-87.5979,POINT (-87.5979 41.7509),170314401011,IL,Cook,Chicago,East Chatham,403360,2016,5.31,11.86,-0.04291497975708502,0.05499153976311337
231,"3027 W Lexington St 1, Chicago, IL 60612",1050,Apt,1.0,2.0,Yes,Available Now,(773) 961-4367,http://chicagoha.gosection8.com/Section-8-housing-in-Chicago-IL/2-bedroom-1-bathroom-rental-Apt/4318452,41.8717,-87.702,POINT (-87.702 41.8717),170318373001,IL,Cook,Chicago,Archer Heights,269568,2016,5.02,11.58,-0.015256588072122053,0.06267605633802817
232,"3538 W Grenshaw St 2rf3rf, Chicago, IL 60624",1000,Apt,1.0,2.0,Yes,Available Now,(773) 961-4367,http://chicagoha.gosection8.com/Section-8-housing-in-Chicago-IL/2-bedroom-1-bathroom-rental-Apt/4318460,41.8675,-87.7145,POINT (-87.7145 41.8675),170318430001,IL,Cook,Chicago,Homan Square,403327,2016,2.29,9.4,,
233,"3953 W Van Buren St 13, Chicago, IL 60624",900,Apt,1.0,2.0,Yes,Available Now,(773) 961-4367,http://chicagoha.gosection8.com/Section-8-housing-in-Chicago-IL/2-bedroom-1-bathroom-rental-Apt/4318464,41.875,-87.7253,POINT (-87.7253 41.875),170312608002,IL,Cook,Chicago,East Garfield Park,269577,2016,2.59,7.49,-0.012162162162162163,0.03419972640218878
234,"850 N Hamlin Ave 1, Chicago, IL 60651",900,Apt,1.0,2.0,Yes,Available Now,(773) 961-4367,http://chicagoha.gosection8.com/Section-8-housing-in-Chicago-IL/2-bedroom-1-bathroom-rental-Apt/4318469,41.8969,-87.7216,POINT (-87.7216 41.8969),170312312003,IL,Cook,Chicago,Humboldt Park,269585,2016,2.78,7.54,0.05357142857142857,0.031387319522912745
235,"850 N Hamlin Ave 1, Chicago, IL 60651",900,Apt,1.0,2.0,Yes,Available Now,(773) 961-4367,http://chicagoha.gosection8.com/Section-8-housing-in-Chicago-IL/2-bedroom-1-bathroom-rental-Apt/4318470,41.8969,-87.7216,POINT (-87.7216 41.8969),170312312003,IL,Cook,Chicago,Humboldt Park,269585,2016,2.78,7.54,0.05357142857142857,0.031387319522912745
236,"3834 W Maypole Ave 1, Chicago, IL 60624",900,Apt,1.0,2.0,Yes,Available Now,(773) 961-4367,http://chicagoha.gosection8.com/Section-8-housing-in-Chicago-IL/2-bedroom-1-bathroom-rental-Apt/4318488,41.8844,-87.7223,POINT (-87.7223 41.8844),170312601001,IL,Cook,Chicago,East Garfield Park,269577,2016,1.27,1.98,-0.012162162162162163,0.03419972640218878
237,"24 N Menard Ave , Chicago, IL 60644",1350,Apt,1.0,3.0,Yes,Check Availability,,http://chicagoha.gosection8.com/Section-8-housing-in-Chicago-IL/3-bedroom-1-bathroom-rental-Apt/4319398,41.881,-87.7702,POINT (-87.7702 41.881),170312520003,IL,Cook,Chicago,South Austin,403120,2016,2.52,5.95,-0.003479471120389701,0.05377094972067039
238,"2514 W 70th St 1, Chicago, IL 60629",750,Apt,1.0,2.0,Yes,Check Availability,,http://chicagoha.gosection8.com/Section-8-housing-in-Chicago-IL/2-bedroom-1-bathroom-rental-Apt/4321302,41.7665,-87.6864,POINT (-87.68640000000001 41.7665),170316609002,IL,Cook,Chicago,Lithuanian Plaza,403339,2016,1.82,4.55,,
239,"7848 S Coles Ave , Chicago, IL 60649",1050,Apt,1.0,2.0,Yes,Available Now,(773) 961-4367,http://chicagoha.gosection8.com/Section-8-housing-in-Chicago-IL/2-bedroom-1-bathroom-rental-Apt/4322418,41.7534,-87.5518,POINT (-87.5518 41.7534),170314314003,IL,Cook,Chicago,South Shore,269608,2016,5.56,11.46,-0.028191072826938137,0.038678485092667206
240,"7316 S Bell Ave 1, Chicago, IL 60636",1300,Apt,2.0,4.0,Yes,Check Availability,,http://chicagoha.gosection8.com/Section-8-housing-in-Chicago-IL/4-bedroom-2-bathroom-rental-Apt/4323420,41.7605,-87.6796,POINT (-87.67959999999999 41.7605),170316610002,IL,Cook,Chicago,West Englewood,269612,2016,4.84,13.71,0.0024813895781637717,0.11303630363036303
241,"6636 S Woodlawn Ave , Chicago, IL 60637",1400,Apt,1.0,2.0,Yes,Check Availability,,http://chicagoha.gosection8.com/Section-8-housing-in-Chicago-IL/2-bedroom-1-bathroom-rental-Apt/4324714,41.774,-87.5964,POINT (-87.5964 41.774),170318344003,IL,Cook,Chicago,Woodlawn,276138,2016,2.69,4.93,-0.02700781805259417,0.02410518626734843
242,"6611 S Rockwell 2, Chicago, IL 60629",750,Apt,1.0,2.0,Yes,Check Availability,,http://chicagoha.gosection8.com/Section-8-housing-in-Chicago-IL/2-bedroom-1-bathroom-rental-Apt/4324739,41.7733,-87.688,POINT (-87.688 41.7733),170316608002,IL,Cook,Chicago,Marquette Park,403148,2016,2.24,2.69,0.029065200314218383,0.1
243,"120 N Kilpatrick Ave 3s, Chicago, IL 60644",800,Apt,1.0,2.0,Yes,Check Availability,,http://chicagoha.gosection8.com/Section-8-housing-in-Chicago-IL/2-bedroom-1-bathroom-rental-Apt/4328435,41.8826416,-87.74291,POINT (-87.74290999999999 41.8826416),170312518003,IL,Cook,Chicago,West Garfield Park,269613,2016,3.59,4.93,-0.03136136849607983,0.046357615894039736
244,"1632 S Trumbull Ave 1, Chicago, IL 60623",1000,Apt,1.0,3.0,Yes,Check Availability,,http://chicagoha.gosection8.com/Section-8-housing-in-Chicago-IL/3-bedroom-1-bathroom-rental-Apt/4328554,41.858,-87.7119,POINT (-87.7119 41.858),170312922001,IL,Cook,Chicago,Archer Heights,269568,2016,2.09,5.86,-0.015256588072122053,0.06267605633802817
245,"8834 S Saginaw Ave 2, Chicago, IL 60617",1000,Apt,1.0,3.0,Yes,Check Availability,,http://chicagoha.gosection8.com/Section-8-housing-in-Chicago-IL/3-bedroom-1-bathroom-rental-Apt/4329490,41.734355,-87.560052,POINT (-87.560052 41.734355),170314606001,IL,Cook,Chicago,South Chicago,140437,2016,3.17,5.88,0.02642113690952762,0.06708268330733229
246,"7011 S Dante Ave 1, Chicago, IL 60637",1100,Apt,1.0,3.0,Yes,Check Availability,,http://chicagoha.gosection8.com/Section-8-housing-in-Chicago-IL/3-bedroom-1-bathroom-rental-Apt/4329741,41.767421,-87.589013,POINT (-87.58901299999999 41.767421),170314303002,IL,Cook,Chicago,Grand Crossing,276349,2016,3.77,10.04,-0.02107728337236534,0.058213716108452954
247,"1507 S Sawyer Ave , Chicago, IL 60623",1500,Apt,2.0,3.0,Yes,Available Now,(773) 633-2369,http://chicagoha.gosection8.com/Section-8-housing-in-Chicago-IL/3-bedroom-2-bathroom-rental-Apt/4332663,41.8606,-87.7067,POINT (-87.7067 41.8606),170318415002,IL,Cook,Chicago,Archer Heights,269568,2016,2.22,6.67,-0.015256588072122053,0.06267605633802817
248,"5222 W Hirsch St Apt 1, Chicago, IL 60651",1100,Apt,1.0,2.0,Yes,Available Now,(773) 615-8466,http://chicagoha.gosection8.com/Section-8-housing-in-Chicago-IL/2-bedroom-1-bathroom-rental-Apt/4336003,41.9060165,-87.7567234,POINT (-87.7567234 41.9060165),170312507001,IL,Cook,Chicago,North Austin,403323,2016,1.69,4.24,0.01722900215362527,0.1213832039520113
249,"3418 , Chicago, IL 60624",1200,Apt,1.0,3.0,Yes,Check Availability,,http://chicagoha.gosection8.com/Section-8-housing-in-Chicago-IL/3-bedroom-1-bathroom-rental-Apt/4337036,41.8955044,-87.7122861,POINT (-87.7122861 41.8955044),170318366001,IL,Cook,Chicago,East Garfield Park,269577,2016,1.98,5.93,-0.012162162162162163,0.03419972640218878
250,"5900 S Throop 1, Chicago, IL 60636",1150,Apt,1.0,4.0,Yes,Check Availability,,http://chicagoha.gosection8.com/Section-8-housing-in-Chicago-IL/4-bedroom-1-bathroom-rental-Apt/4337204,41.7868397,-87.6571204,POINT (-87.6571204 41.7868397),170316709002,IL,Cook,Chicago,Englewood,138261,2016,0.69,5.52,-0.018268467037331215,0.0744336569579288
251,"8710 S Saginaw Ave , Chicago, IL 60617",750,Apt,1.0,2.0,Yes,Check Availability,,http://chicagoha.gosection8.com/Section-8-housing-in-Chicago-IL/2-bedroom-1-bathroom-rental-Apt/4337695,41.736856,-87.560121,POINT (-87.560121 41.736856),170314606001,IL,Cook,Chicago,South Chicago,140437,2016,3.17,5.88,0.02642113690952762,0.06708268330733229
252,"220 S Lotus Ave 1, Chicago, IL 60644",1300,Apt,1.0,3.0,Yes,Check Availability,,http://chicagoha.gosection8.com/Section-8-housing-in-Chicago-IL/3-bedroom-1-bathroom-rental-Apt/4337904,41.8777244,-87.7619326,POINT (-87.76193259999999 41.8777244),170312521021,IL,Cook,Chicago,South Austin,403120,2016,1.0,2.0,-0.003479471120389701,0.05377094972067039
253,"6957 S Maplewood Ave 1, Chicago, IL 60629",800,Apt,1.0,2.0,Yes,Check Availability,,http://chicagoha.gosection8.com/Section-8-housing-in-Chicago-IL/2-bedroom-1-bathroom-rental-Apt/4338039,41.7666,-87.6866,POINT (-87.6866 41.7666),170316609002,IL,Cook,Chicago,Lithuanian Plaza,403339,2016,1.82,4.55,,
254,"6119 S Green St , Chicago , IL  60621",1400,Apt,1.0,3.0,Yes,Check Availability,,http://chicagoha.gosection8.com/Section-8-housing-in-Chicago--IL%20/3-bedroom-1-bathroom-rental-Apt/4340553,41.782749,-87.645734,POINT (-87.645734 41.782749),170318348002,IL,Cook,Chicago,Englewood,138261,2016,1.03,6.21,-0.018268467037331215,0.0744336569579288
255,"7717 S Phillips Ave 1, Chicago, IL 60649",875,Apt,1.0,2.0,Yes,Available Now,(773) 961-4367,http://chicagoha.gosection8.com/Section-8-housing-in-Chicago-IL/2-bedroom-1-bathroom-rental-Apt/4340598,41.754807,-87.5647089,POINT (-87.5647089 41.754807),170314313012,IL,Cook,Chicago,South Shore,269608,2016,7.65,17.1,-0.028191072826938137,0.038678485092667206
256,"7718 S Phillips Ave , Chicago, IL 60649",1000,Apt,2.0,3.0,Yes,Check Availability,,http://chicagoha.gosection8.com/Section-8-housing-in-Chicago-IL/3-bedroom-2-bathroom-rental-Apt/4341092,41.7548,-87.5654,POINT (-87.5654 41.7548),170314313012,IL,Cook,Chicago,South Shore,269608,2016,7.65,17.1,-0.028191072826938137,0.038678485092667206
257,"8200 S Escanaba 1, Chicago, IL 60617",950,Apt,1.0,2.0,Yes,Available Now,(773) 961-4367,http://chicagoha.gosection8.com/Section-8-housing-in-Chicago-IL/2-bedroom-1-bathroom-rental-Apt/4341990,41.7463,-87.5543,POINT (-87.5543 41.7463),170314603024,IL,Cook,Chicago,South Chicago,140437,2016,2.99,5.97,0.02642113690952762,0.06708268330733229
258,"8100 S Burnham Ave , Chicago, IL 60617",1050,Apt,1.0,2.0,Yes,Check Availability,,http://chicagoha.gosection8.com/Section-8-housing-in-Chicago-IL/2-bedroom-1-bathroom-rental-Apt/4343077,41.748086,-87.5568,POINT (-87.5568 41.748086),170314603024,IL,Cook,Chicago,South Chicago,140437,2016,2.99,5.97,0.02642113690952762,0.06708268330733229
259,"7615 S Morgan St 1, Chicago, IL 60620",850,Apt,1.0,2.0,Yes,Available Now,(773) 961-4367,http://chicagoha.gosection8.com/Section-8-housing-in-Chicago-IL/2-bedroom-1-bathroom-rental-Apt/4343586,41.7555,-87.6487,POINT (-87.64870000000001 41.7555),170317102002,IL,Cook,Chicago,Gresham,269571,2016,4.0,8.0,-0.0031007751937984496,0.09720062208398134
260,"6231 S Racine Ave 1, Chicago, IL 60636",1200,Apt,1.0,3.0,Yes,Check Availability,,http://chicagoha.gosection8.com/Section-8-housing-in-Chicago-IL/3-bedroom-1-bathroom-rental-Apt/4344490,41.780476,-87.654184,POINT (-87.654184 41.780476),170316806002,IL,Cook,Chicago,Englewood,138261,2016,2.2,6.61,-0.018268467037331215,0.0744336569579288
261,"8125 S Colfax Ave 2s, Chicago, IL 60617",900,Apt,1.0,2.0,Yes,Available Now,(773) 961-4367,http://chicagoha.gosection8.com/Section-8-housing-in-Chicago-IL/2-bedroom-1-bathroom-rental-Apt/4344893,41.7473,-87.561,POINT (-87.56100000000001 41.7473),170314603024,IL,Cook,Chicago,South Chicago,140437,2016,2.99,5.97,0.02642113690952762,0.06708268330733229
262,"7822 S Marshfield Ave 2r, Chicago, IL 60620",650,Apt,1.0,1.0,Yes,Available Now,(773) 961-4367,http://chicagoha.gosection8.com/Section-8-housing-in-Chicago-IL/1-bedroom-1-bathroom-rental-Apt/4344907,41.7514,-87.665,POINT (-87.66500000000001 41.7514),170317104002,IL,Cook,Chicago,Gresham,269571,2016,2.21,7.35,-0.0031007751937984496,0.09720062208398134
263,"4501 W Jackson Blvd 1e, Chicago, IL 60624",1050,Apt,1.0,3.0,Yes,Available Now,(312) 296-7312,http://chicagoha.gosection8.com/Section-8-housing-in-Chicago-IL/3-bedroom-1-bathroom-rental-Apt/4345521,41.8768,-87.738,POINT (-87.738 41.8768),170312605001,IL,Cook,Chicago,West Garfield Park,269613,2016,2.45,5.88,-0.03136136849607983,0.046357615894039736
264,"8854 S Buffalo Ave , Chicago, IL 60617",900,Apt,1.0,3.0,Yes,Available Now,(773) 961-4367,http://chicagoha.gosection8.com/Section-8-housing-in-Chicago-IL/3-bedroom-1-bathroom-rental-Apt/4346353,41.734,-87.5448,POINT (-87.5448 41.734),170314607001,IL,Cook,Chicago,South Chicago,140437,2016,3.78,9.59,0.02642113690952762,0.06708268330733229
265,"8015 S Vernon Ave 1a, Chicago, IL 60619",900,Apt,1.0,2.0,Yes,Check Availability,,http://chicagoha.gosection8.com/Section-8-housing-in-Chicago-IL/2-bedroom-1-bathroom-rental-Apt/4346476,41.74886,-87.613293,POINT (-87.613293 41.74886),170314402014,IL,Cook,Chicago,Chatham,273222,2016,2.41,5.79,-0.003000750187546887,0.08653122648607976
266,"7252 S Evans Ave 2b, Chicago, IL 60619",800,Apt,1.0,1.0,Yes,Check Availability,,http://chicagoha.gosection8.com/Section-8-housing-in-Chicago-IL/1-bedroom-1-bathroom-rental-Apt/4346874,41.762421,-87.6070699,POINT (-87.6070699 41.762421),170316909001,IL,Cook,Chicago,Park Manor,403356,2016,0.88,7.46,-0.023148148148148147,0.06398104265402843
267,"8400 S Brandon Ave 1, Chicago, IL 60617",1000,Apt,1.0,3.0,Yes,Available Now,(773) 961-4367,http://chicagoha.gosection8.com/Section-8-housing-in-Chicago-IL/3-bedroom-1-bathroom-rental-Apt/4348259,41.7428,-87.547,POINT (-87.547 41.7428),170314602002,IL,Cook,Chicago,The Bush,403359,2016,2.02,7.07,,
268,"6526 S Drexel Ave , Chicago, IL 60637",1200,Apt,1.0,3.0,Yes,Available Now,(773) 961-4367,http://chicagoha.gosection8.com/Section-8-housing-in-Chicago-IL/3-bedroom-1-bathroom-rental-Apt/4348445,41.776,-87.6037,POINT (-87.6037 41.776),170314208002,IL,Cook,Chicago,Woodlawn,276138,2016,3.46,8.07,-0.02700781805259417,0.02410518626734843
269,"8117 S Kingston Ave 2, Chicago, IL 60617",850,Apt,1.0,3.0,Yes,Available Now,(773) 412-0541,http://chicagoha.gosection8.com/Section-8-housing-in-Chicago-IL/3-bedroom-1-bathroom-rental-Apt/4349164,41.7476,-87.5622,POINT (-87.5622 41.7476),170314604002,IL,Cook,Chicago,South Chicago,140437,2016,6.99,11.89,0.02642113690952762,0.06708268330733229
270,"6952 S Ada St 2, Chicago, IL 60636",1000,Apt,1.0,4.0,Yes,Check Availability,,http://chicagoha.gosection8.com/Section-8-housing-in-Chicago-IL/4-bedroom-1-bathroom-rental-Apt/4349365,41.7670699,-87.658156,POINT (-87.65815600000001 41.7670699),170318349001,IL,Cook,Chicago,Englewood,138261,2016,2.48,9.92,-0.018268467037331215,0.0744336569579288
271,"6720 S Elizabeth St 1 And 2, Chicago, IL 60636",1300,Apt,1.0,4.0,Yes,Check Availability,,http://chicagoha.gosection8.com/Section-8-housing-in-Chicago-IL/4-bedroom-1-bathroom-rental-Apt/4349932,41.771627,-87.655858,POINT (-87.65585799999999 41.771627),170318349002,IL,Cook,Chicago,Englewood,138261,2016,2.46,8.48,-0.018268467037331215,0.0744336569579288
272,"6036 S Green St 1 And 2, Chicago, IL 60621",1200,Apt,1.0,3.0,Yes,Check Availability,,http://chicagoha.gosection8.com/Section-8-housing-in-Chicago-IL/3-bedroom-1-bathroom-rental-Apt/4349947,41.784041,-87.646469,POINT (-87.646469 41.784041),170318348001,IL,Cook,Chicago,Englewood,138261,2016,0.78,4.65,-0.018268467037331215,0.0744336569579288
273,"6848 S Ashland Ave , Chicago, IL 60636",1400,Apt,1.0,3.0,Yes,Check Availability,,http://chicagoha.gosection8.com/Section-8-housing-in-Chicago-IL/3-bedroom-1-bathroom-rental-Apt/4350140,41.768945,-87.664241,POINT (-87.664241 41.768945),170316715003,IL,Cook,Chicago,West Englewood,269612,2016,0.48,3.37,0.0024813895781637717,0.11303630363036303
274,"6142 S Evans Ave 2, Chicago, IL 60637",1300,Apt,1.5,3.0,Yes,Check Availability,,http://chicagoha.gosection8.com/Section-8-housing-in-Chicago-IL/3-bedroom-1-full-bathroom-rental-Apt/4350143,41.7828,-87.6076,POINT (-87.60760000000001 41.7828),170314205002,IL,Cook,Chicago,West Woodlawn,403353,2016,1.89,5.03,-0.04661654135338346,0.026813880126182965
275,"738 E Marquette Rd 1st, Chicago, IL 60637",750,Apt,1.0,2.0,Yes,Check Availability,,http://chicagoha.gosection8.com/Section-8-housing-in-Chicago-IL/2-bedroom-1-bathroom-rental-Apt/4351357,41.775169,-87.606782,POINT (-87.606782 41.775169),170314207002,IL,Cook,Chicago,West Woodlawn,403353,2016,1.46,9.49,-0.04661654135338346,0.026813880126182965
276,"7140 S Champlain Ave 1, Chicago, IL 60619",1200,Apt,1.0,4.0,Yes,Check Availability,,http://chicagoha.gosection8.com/Section-8-housing-in-Chicago-IL/4-bedroom-1-bathroom-rental-Apt/4351685,41.7646,-87.6095,POINT (-87.6095 41.7646),170316909004,IL,Cook,Chicago,Park Manor,403356,2016,4.78,9.13,-0.023148148148148147,0.06398104265402843
277,"12037 S La Salle St 2, Chicago, IL 60628",1000,Apt,1.0,2.0,Yes,Check Availability,,http://chicagoha.gosection8.com/Section-8-housing-in-Chicago-IL/2-bedroom-1-bathroom-rental-Apt/4352529,41.6751,-87.6258,POINT (-87.6258 41.6751),170315305014,IL,Cook,Chicago,West Pullman,140913,2016,0.0,5.56,0.009828009828009828,0.12570965125709652
278,"8119 S Perry Ave , Chicago, IL 60620",1450,House,1.0,3.0,Yes,Check Availability,,http://chicagoha.gosection8.com/Section-8-housing-in-Chicago-IL/3-bedroom-1-bathroom-rental-House/4355343,41.7467,-87.6267,POINT (-87.6267 41.7467),170318424001,IL,Cook,Chicago,West Chatham,403357,2016,1.7,7.39,0.022187004754358162,0.10542635658914729
279,"7919 S Ellis Ave , Chicago, IL 60619",900,Apt,1.0,3.0,Yes,Check Availability,,http://chicagoha.gosection8.com/Section-8-housing-in-Chicago-IL/3-bedroom-1-bathroom-rental-Apt/4356238,41.750683,-87.599954,POINT (-87.599954 41.750683),170314401011,IL,Cook,Chicago,East Chatham,403360,2016,5.31,11.86,-0.04291497975708502,0.05499153976311337
280,"5323 S Emerald Ave R1, Chicago, IL 60609",700,4-Plex,1.0,3.0,Yes,Available Now,(630) 479-6560,http://chicagoha.gosection8.com/Section-8-housing-in-Chicago-IL/3-bedroom-1-bathroom-rental-4-Plex/4356456,41.7973,-87.6437,POINT (-87.6437 41.7973),170318438002,IL,Cook,Chicago,Back of the Yards,403146,2016,0.61,6.67,0.0,0.08339828526890102
281,"5507 S May St 2, Chicago, IL 60621",750,Apt,1.0,2.0,Yes,Check Availability,,http://chicagoha.gosection8.com/Section-8-housing-in-Chicago-IL/2-bedroom-1-bathroom-rental-Apt/4356639,41.7935177,-87.6535349,POINT (-87.6535349 41.7935177),170316805001,IL,Cook,Chicago,Englewood,138261,2016,0.81,8.06,-0.018268467037331215,0.0744336569579288
282,"900 N Central Park Ave 2, Chicago, IL 60651",855,Apt,1.0,2.0,Yes,Check Availability,,http://chicagoha.gosection8.com/Section-8-housing-in-Chicago-IL/2-bedroom-1-bathroom-rental-Apt/4356812,41.897401,-87.716727,POINT (-87.71672700000001 41.897401),170312312002,IL,Cook,Chicago,Humboldt Park,269585,2016,1.24,2.8,0.05357142857142857,0.031387319522912745
283,"3604 W Iowa St 2, Chicago, IL 60651",650,Apt,1.0,1.0,Yes,Check Availability,,http://chicagoha.gosection8.com/Section-8-housing-in-Chicago-IL/1-bedroom-1-bathroom-rental-Apt/4356817,41.8972956,-87.7165405,POINT (-87.71654049999999 41.8972956),170312312002,IL,Cook,Chicago,Humboldt Park,269585,2016,1.24,2.8,0.05357142857142857,0.031387319522912745
284,"8651 S Marquette Ave , Chicago, IL 60617",1100,Apt,2.0,2.0,Yes,Check Availability,,http://chicagoha.gosection8.com/Section-8-housing-in-Chicago-IL/2-bedroom-2-bathroom-rental-Apt/4356916,41.737583,-87.55835,POINT (-87.55835 41.737583),170314603012,IL,Cook,Chicago,South Chicago,140437,2016,2.69,6.45,0.02642113690952762,0.06708268330733229
285,"7607 S Normal Ave , Chicago, IL 60620",1000,Apt,1.0,3.0,Yes,Available Now,(773) 317-3767,http://chicagoha.gosection8.com/Section-8-housing-in-Chicago-IL/3-bedroom-1-bathroom-rental-Apt/4357472,41.7559,-87.6365,POINT (-87.6365 41.7559),170316912001,IL,Cook,Chicago,Gresham,269571,2016,3.02,7.79,-0.0031007751937984496,0.09720062208398134
286,"6006 S Albany 2, Chicago, IL 60629",1100,Apt,1.0,3.0,Yes,Check Availability,,http://chicagoha.gosection8.com/Section-8-housing-in-Chicago-IL/3-bedroom-1-bathroom-rental-Apt/4359450,41.7842,-87.7012,POINT (-87.7012 41.7842),170316603022,IL,Cook,Chicago,Chicago Lawn,269576,2016,0.33,3.58,0.04265402843601896,0.09393939393939393
287,"7148 S Talman Ave 2, Chicago, IL 60629",1400,Apt,1.0,4.0,Yes,Check Availability,,http://chicagoha.gosection8.com/Section-8-housing-in-Chicago-IL/4-bedroom-1-bathroom-rental-Apt/4359467,41.7632,-87.6897,POINT (-87.6897 41.7632),170316610005,IL,Cook,Chicago,Marquette Park,403148,2016,0.91,3.93,0.029065200314218383,0.1
